[
    {
        "address": "BLK 270/271 ALBERT CENTRE BASEMENT CAR PARK",
        "latitude": 1.311114,
        "longitude": 103.856431
    },
    {
        "address": "BLK 98A ALJUNIED CRESCENT",
        "latitude": 1.321905,
        "longitude": 103.8861
    },
    {
        "address": "BLK 101 JALAN DUSUN",
        "latitude": 1.328887,
        "longitude": 103.842959
    },
    {
        "address": "BLOCK 253 ANG MO KIO STREET 21",
        "latitude": 1.369625,
        "longitude": 103.834564
    },
    {
        "address": "BLK 302/348 ANG MO KIO ST 31",
        "latitude": 1.3655702,
        "longitude": 103.847657598259
    },
    {
        "address": "BLOCK 513 ANG MO KIO ST 53",
        "latitude": 1.3719482,
        "longitude": 103.849572482435
    },
    {
        "address": "BLOCK 728 ANG MO KIO AVE 6",
        "latitude": 1.372636,
        "longitude": 103.845684
    },
    {
        "address": "BLK 5022 TO 5095 ANG MO KIO INDUSTRIAL PARK 2",
        "latitude": 1.37376,
        "longitude": 103.861366
    },
    {
        "address": "ANG MO KIO AVENUE 9",
        "latitude": 1.3833036,
        "longitude": 103.841765119132
    },
    {
        "address": "BLK 227 ANG MO KIO ST 23",
        "latitude": 1.368735,
        "longitude": 103.840274
    },
    {
        "address": "BLK 256A ANG MO KIO STREET 21",
        "latitude": 1.370745,
        "longitude": 103.835228
    },
    {
        "address": "BLK 308C ANG MO KIO AVE 1",
        "latitude": 1.365403,
        "longitude": 103.844768
    },
    {
        "address": "BLK 260 ANG MO KIO ST 21",
        "latitude": 1.368826,
        "longitude": 103.834544
    },
    {
        "address": "BLK 309B ANG MO KIO ST 31",
        "latitude": 1.364798,
        "longitude": 103.846048
    },
    {
        "address": "BLK 316B ANG MO KIO STREET 31",
        "latitude": 1.364693,
        "longitude": 103.84703
    },
    {
        "address": "BLK 255A ANG MO KIO ST 21",
        "latitude": 1.370655,
        "longitude": 103.834627
    },
    {
        "address": "BLK 455 ANG MO KIO ST 44",
        "latitude": 1.368176,
        "longitude": 103.85754
    },
    {
        "address": "BLK 588 ANG MO KIO STREET 52",
        "latitude": 1.372124,
        "longitude": 103.85271
    },
    {
        "address": "BLK 700 ANG MO KIO AVE 6",
        "latitude": 1.369927,
        "longitude": 103.846734
    },
    {
        "address": "BLK 590 ANG MO KIO ST 51",
        "latitude": 1.371218,
        "longitude": 103.852872
    },
    {
        "address": "BLK 596 ANG MO KIO STREEET 52",
        "latitude": 1.371998,
        "longitude": 103.850158
    },
    {
        "address": "BLK 130A ANG MO KIO ST 12",
        "latitude": 1.370662,
        "longitude": 103.841914
    },
    {
        "address": "BLK 132A ANG MO KIO ST 12",
        "latitude": 1.371673,
        "longitude": 103.841969
    },
    {
        "address": "BLK 352A ANG MO KIO STREET 32",
        "latitude": 1.364153,
        "longitude": 103.850941
    },
    {
        "address": "3 AND 5 DOVER ROAD",
        "latitude": 1.303977,
        "longitude": 103.781816
    },
    {
        "address": "BLK 2A DOVER ROAD",
        "latitude": 1.302832,
        "longitude": 103.783663
    },
    {
        "address": "BLK 26 AND 27 DOVER CRESCENT",
        "latitude": 1.304685,
        "longitude": 103.781748
    },
    {
        "address": "BLK 28 DOVER CRESCENT",
        "latitude": 1.304685,
        "longitude": 103.781748
    },
    {
        "address": "BLK 19A DOVER CRESCENT",
        "latitude": 1.304685,
        "longitude": 103.781748
    },
    {
        "address": "12 TO 14 DOVER CLOSE EAST",
        "latitude": 1.305551,
        "longitude": 103.785611
    },
    {
        "address": "BLK 12A DOVER CLOSE EAST",
        "latitude": 1.304707,
        "longitude": 103.785206
    },
    {
        "address": "BLK 20/22/23 DOVER CRESCENT",
        "latitude": 1.304685,
        "longitude": 103.781748
    },
    {
        "address": "BLK 120/120A/121-127 ALEXANDRA VILLAGE",
        "latitude": 1.286189,
        "longitude": 103.804427
    },
    {
        "address": "BLK 1001/1010 BUKIT MERAH LANE 1/3",
        "latitude": 1.2844825,
        "longitude": 103.8053662
    },
    {
        "address": "BLK 215 ANG MO KIO STREET 22",
        "latitude": 1.367778,
        "longitude": 103.839098
    },
    {
        "address": "BLK 201/202 ANG MO KIO STREET 22",
        "latitude": 1.36774625,
        "longitude": 103.840153630345
    },
    {
        "address": "BLK 650 ANG MO KIO STREET 61",
        "latitude": 1.377722,
        "longitude": 103.842708
    },
    {
        "address": "BLK 223/226/226A-226D ANG MO KIO ST 22",
        "latitude": 1.367156,
        "longitude": 103.839251
    },
    {
        "address": "BLK 229/230 ANG MO KIO ST 22",
        "latitude": 1.36774625,
        "longitude": 103.840153630345
    },
    {
        "address": "BLK 232/233 ANG MO KIO ST 22",
        "latitude": 1.36774625,
        "longitude": 103.840153630345
    },
    {
        "address": "BLK 226E-226H ANG MO KIO ST 22",
        "latitude": 1.367192,
        "longitude": 103.840022
    },
    {
        "address": "BLK 206/207 ANG MO KIO STREET 22",
        "latitude": 1.36774625,
        "longitude": 103.840153630345
    },
    {
        "address": "BLK 304/307/319 ANG MO KIO ST 31",
        "latitude": 1.3655702,
        "longitude": 103.847657598259
    },
    {
        "address": "BLK 325/326/301 ANG MO KIO STREET 31",
        "latitude": 1.3655702,
        "longitude": 103.847657598259
    },
    {
        "address": "BLK 347A ANG MO KIO AVENUE 3",
        "latitude": 1.367321,
        "longitude": 103.848933
    },
    {
        "address": "BLK 338/340 ANG MO KIO ST 32",
        "latitude": 1.364325575,
        "longitude": 103.850302873559
    },
    {
        "address": "BLK 330/337 ANG MO KIO AVE 8",
        "latitude": 1.3726163,
        "longitude": 103.8491567
    },
    {
        "address": "BLK 113/114/118 ANG MO KIO AVE 4",
        "latitude": 1.375845875,
        "longitude": 103.83812544682
    },
    {
        "address": "BLK 108/109/110 ANG MO KIO ST 11",
        "latitude": 1.371490175,
        "longitude": 103.838460617071
    },
    {
        "address": "BLK 103/105/107 ANG MO KIO ST 11",
        "latitude": 1.371490175,
        "longitude": 103.838460617071
    },
    {
        "address": "BLK 347 ANG MO KIO AVENUE 3",
        "latitude": 1.36768,
        "longitude": 103.848389
    },
    {
        "address": "BLK 129/134 ANG MO KIO STREET 12",
        "latitude": 1.37163305,
        "longitude": 103.843643400336
    },
    {
        "address": "BLK 133 ANG MO KIO STREET 12",
        "latitude": 1.37182,
        "longitude": 103.845273
    },
    {
        "address": "BLK 119/128 ANG MO KIO ST 12",
        "latitude": 1.37163305,
        "longitude": 103.843643400336
    },
    {
        "address": "BLK 125/126 ANG MO KIO STREET 12",
        "latitude": 1.37163305,
        "longitude": 103.843643400336
    },
    {
        "address": "BLK 253/254 ANG MO KIO STREET 21",
        "latitude": 1.368825725,
        "longitude": 103.834543552446
    },
    {
        "address": "BLK 422/425 ANG MO KIO ST 42",
        "latitude": 1.3674267,
        "longitude": 103.8516674
    },
    {
        "address": "BLK 426/428/435 ANG MO KIO ST 43",
        "latitude": 1.3684338,
        "longitude": 103.855095
    },
    {
        "address": "BLK 436/443/445 ANG MO KIO ST 43",
        "latitude": 1.3684338,
        "longitude": 103.855095
    },
    {
        "address": "BLK 446/449/453 ANG MO KIO ST 43",
        "latitude": 1.3684338,
        "longitude": 103.855095
    },
    {
        "address": "BLK 407/410/421 ANG MO KIO AVE 10",
        "latitude": 1.3674823,
        "longitude": 103.8559691
    },
    {
        "address": "BLK 401/405 ANG MO KIO AVE 10",
        "latitude": 1.3674823,
        "longitude": 103.8559691
    },
    {
        "address": "BLK 217/220 ANG MO KIO AVENUE 1",
        "latitude": 1.3730852,
        "longitude": 103.86655615721
    },
    {
        "address": "BLK 471/476 ANG MO KIO ST 44",
        "latitude": 1.3656536,
        "longitude": 103.8582672
    },
    {
        "address": "BLK 466/470 ANG MO KIO ST 44",
        "latitude": 1.3656536,
        "longitude": 103.8582672
    },
    {
        "address": "BLK 461/465 ANG MO KIO ST 44",
        "latitude": 1.3656536,
        "longitude": 103.8582672
    },
    {
        "address": "BLK 457/458/460 ANG MO KIO ST 44",
        "latitude": 1.3656536,
        "longitude": 103.8582672
    },
    {
        "address": "BLK 459/456 ANG MO KIO ST 44",
        "latitude": 1.3656536,
        "longitude": 103.8582672
    },
    {
        "address": "BLK 570/578 ANG MO KIO ST 51",
        "latitude": 1.3712175,
        "longitude": 103.8528724
    },
    {
        "address": "BLK 562/565/560 ANG MO KIO STREET 54",
        "latitude": 1.3733006,
        "longitude": 103.858563
    },
    {
        "address": "BLK 571/73 ANG MO KIO ST 51",
        "latitude": 1.3712175,
        "longitude": 103.8528724
    },
    {
        "address": "BLK 555/559 ANG MO KIO STREET 54",
        "latitude": 1.3733006,
        "longitude": 103.858563
    },
    {
        "address": "BLK 548/552/556 ANG MO KIO STREET 54",
        "latitude": 1.3733006,
        "longitude": 103.858563
    },
    {
        "address": "BLK 252/253A ANG MO KIO STREET 21",
        "latitude": 1.368825725,
        "longitude": 103.834543552446
    },
    {
        "address": "BLK 701/716 ANG MO KIO AVE 3/6",
        "latitude": 1.368119,
        "longitude": 103.851093
    },
    {
        "address": "BLK 700B/ 700C ANG MO KIO AVE 3/6",
        "latitude": 1.36953,
        "longitude": 103.846543
    },
    {
        "address": "BLK 712A ANG MO KIO AVE 3/6",
        "latitude": 1.370727,
        "longitude": 103.847215
    },
    {
        "address": "BLK 727/728 ANG MO KIO AVE 6",
        "latitude": 1.367818,
        "longitude": 103.844804
    },
    {
        "address": "BLK 729/730 ANG MO KIO AVE 6/8",
        "latitude": 1.368119,
        "longitude": 103.851093
    },
    {
        "address": "BLK 725/730 ANG MO KIO AVE 8",
        "latitude": 1.3726163,
        "longitude": 103.8491567
    },
    {
        "address": "BLK 720/723 ANG MO KIO AVE 8",
        "latitude": 1.3726163,
        "longitude": 103.8491567
    },
    {
        "address": "BLK 721/722 ANG MO KIO AVE 8",
        "latitude": 1.3726163,
        "longitude": 103.8491567
    },
    {
        "address": "BLK 547/551 ANG MO KIO ST 54",
        "latitude": 1.3733006,
        "longitude": 103.858563
    },
    {
        "address": "BLK 540/546 ANG MO KIO ST 54",
        "latitude": 1.3733006,
        "longitude": 103.858563
    },
    {
        "address": "BLK 520/534/529 ANG MO KIO AVE 5/10",
        "latitude": 1.368119,
        "longitude": 103.851093
    },
    {
        "address": "BLK 501/513/508 ANG MO KIO ST 52/53",
        "latitude": 1.3722578,
        "longitude": 103.852015207149
    },
    {
        "address": "BLK 584/586 ANG MO KIO ST 51",
        "latitude": 1.3712175,
        "longitude": 103.8528724
    },
    {
        "address": "BLK 558/560 ANG MO KIO STREET 54",
        "latitude": 1.3733006,
        "longitude": 103.858563
    },
    {
        "address": "BLK 601/604/603 ANG MO KIO AVE 5",
        "latitude": 1.375483,
        "longitude": 103.8533983
    },
    {
        "address": "BLK 605/612 ANG MO KIO AVE 4/5",
        "latitude": 1.368119,
        "longitude": 103.851093
    },
    {
        "address": "BLK 620/624/626 ANG MO KIO ST 61",
        "latitude": 1.38069005,
        "longitude": 103.8415703
    },
    {
        "address": "BLK 623/625/627 ANG MO KIO ST 61",
        "latitude": 1.38069005,
        "longitude": 103.8415703
    },
    {
        "address": "BLK 212/213 ANG MO KIO STREET 23",
        "latitude": 1.3681201,
        "longitude": 103.840362500907
    },
    {
        "address": "BLK 629/626 ANG MO KIO AVE 4",
        "latitude": 1.375845875,
        "longitude": 103.83812544682
    },
    {
        "address": "BLK 628/632 ANG MO KIO ST 61",
        "latitude": 1.38069005,
        "longitude": 103.8415703
    },
    {
        "address": "BLK 633/640 ANG MO KIO ST 61",
        "latitude": 1.38069005,
        "longitude": 103.8415703
    },
    {
        "address": "BLK 641/645 ANG MO KIO ST 61",
        "latitude": 1.38069005,
        "longitude": 103.8415703
    },
    {
        "address": "BLK 646/649 ANG MO KIO ST 61",
        "latitude": 1.38069005,
        "longitude": 103.8415703
    },
    {
        "address": "BLK 177/182 ANG MO KIO AVE 4",
        "latitude": 1.375845875,
        "longitude": 103.83812544682
    },
    {
        "address": "BLK 613A ANG MO KIO AVENUE 4",
        "latitude": 1.378555,
        "longitude": 103.839415
    },
    {
        "address": "BLK 150/156 ANG MO KIO AVE 5",
        "latitude": 1.375483,
        "longitude": 103.8533983
    },
    {
        "address": "BLK 157/163 ANG MO KIO AVE 4",
        "latitude": 1.375845875,
        "longitude": 103.83812544682
    },
    {
        "address": "BLK 209/210 ANG MO KIO STREET 22",
        "latitude": 1.36774625,
        "longitude": 103.840153630345
    },
    {
        "address": "BLK 170/172 ANG MO KIO ST 13",
        "latitude": 1.374752225,
        "longitude": 103.835658667693
    },
    {
        "address": "BLK 173/176 ANG MO KIO AVE 4",
        "latitude": 1.375845875,
        "longitude": 103.83812544682
    },
    {
        "address": "BLK 5022 TO 5095 ANG MO KIO IND PARK 2",
        "latitude": 1.37376,
        "longitude": 103.861366
    },
    {
        "address": "BLK 340 ANG MO KIO ST 32",
        "latitude": 1.364495,
        "longitude": 103.849498
    },
    {
        "address": "BLK 4001-4003/4026-4028/4033-4035 ANG MO KIO IND PARK 1",
        "latitude": 1.3595415,
        "longitude": 103.85575885
    },
    {
        "address": "BLK 462/463 ANG MO KIO ST 44",
        "latitude": 1.3656536,
        "longitude": 103.8582672
    },
    {
        "address": "BLK 348 ANG MO KIO AVE 3",
        "latitude": 1.366199,
        "longitude": 103.847904
    },
    {
        "address": "BLK 101/102 ANG MO KIO ST 11",
        "latitude": 1.371490175,
        "longitude": 103.838460617071
    },
    {
        "address": "BLK 202/203 ANG MO KIO STREET 22",
        "latitude": 1.36774625,
        "longitude": 103.840153630345
    },
    {
        "address": "BLK 625/627 ANG MO KIO ST 61",
        "latitude": 1.38069005,
        "longitude": 103.8415703
    },
    {
        "address": "BLK 104C ANG MO KIO STREET 11",
        "latitude": 1.371915,
        "longitude": 103.838338
    },
    {
        "address": "BLK 323A ANG MO KIO AVENUE 3",
        "latitude": 1.367548,
        "longitude": 103.847805
    },
    {
        "address": "BLK 259 ANG MO KIO AVE 2",
        "latitude": 1.368584,
        "longitude": 103.831559
    },
    {
        "address": "BLK 181 ANG MO KIO AVE 5",
        "latitude": 1.376756,
        "longitude": 103.837221
    },
    {
        "address": "106 BIDADARI PARK DRIVE",
        "latitude": 1.333806,
        "longitude": 103.870849
    },
    {
        "address": "BLK 117 ALKAFF CRESCENT",
        "latitude": 1.336935,
        "longitude": 103.873154
    },
    {
        "address": "BLK 101 BIDADARI PARK DRIVE",
        "latitude": 1.336233,
        "longitude": 103.871338
    },
    {
        "address": "BLK 113 ALKAFF CRESCENT",
        "latitude": 1.335255,
        "longitude": 103.873014
    },
    {
        "address": "BLK 109 BIDADARI PARK DRIVE",
        "latitude": 1.334163,
        "longitude": 103.872611
    },
    {
        "address": "BLK 232 BRAS BASAH BASEMENT CAR PARK",
        "latitude": 1.311114,
        "longitude": 103.856431
    },
    {
        "address": "BLK 188A BUKIT BATOK WEST AVE 6",
        "latitude": 1.346444,
        "longitude": 103.74539
    },
    {
        "address": "BLK 628A BUKIT BATOK CENTRAL",
        "latitude": 1.350022825,
        "longitude": 103.749201518953
    },
    {
        "address": "BLK 289H BUKIT BATOK STREET 25",
        "latitude": 1.344515,
        "longitude": 103.760021
    },
    {
        "address": "BLK 288H BUKIT BATOK STREET 25",
        "latitude": 1.34554,
        "longitude": 103.760231
    },
    {
        "address": "BLK 290H BUKIT BATOK STREET 24",
        "latitude": 1.34365,
        "longitude": 103.75833
    },
    {
        "address": "BLK 291F BUKIT BATOK STREET 24",
        "latitude": 1.342989,
        "longitude": 103.755519
    },
    {
        "address": "BLK 154A BUKIT BATOK WEST AVE 8",
        "latitude": 1.347433,
        "longitude": 103.74374
    },
    {
        "address": "BLK 622A BUKIT BATOK CENTRAL",
        "latitude": 1.350747,
        "longitude": 103.748696
    },
    {
        "address": "BLK 395A BUKIT BATOK WEST AVE 5",
        "latitude": 1.363794,
        "longitude": 103.751976
    },
    {
        "address": "BLKS 168-180 BISHAN STREET 13",
        "latitude": 1.34858,
        "longitude": 103.851209
    },
    {
        "address": "BLK 181-186 BISHAN STREET 13",
        "latitude": 1.34858,
        "longitude": 103.851209
    },
    {
        "address": "BLK 187-197 BISHAN STREET 13",
        "latitude": 1.34858,
        "longitude": 103.851209
    },
    {
        "address": "BLK 135A BISHAN STREET 12",
        "latitude": 1.344923,
        "longitude": 103.851511
    },
    {
        "address": "BLK 167A BISHAN STREET 13",
        "latitude": 1.347238,
        "longitude": 103.85548
    },
    {
        "address": "BLK 152A BISHAN STREET 11",
        "latitude": 1.345187,
        "longitude": 103.854825
    },
    {
        "address": "BISHAN PARK I",
        "latitude": 1.359479,
        "longitude": 103.850274
    },
    {
        "address": "BLK 441-455 SIN MING/BRIGHT HILL DRIVE",
        "latitude": 1.3582876,
        "longitude": 103.8313701
    },
    {
        "address": "BLK 503/504 BISHAN STREET 11",
        "latitude": 1.34679145,
        "longitude": 103.852577761815
    },
    {
        "address": "BLK 505 BISHAN STREET 11",
        "latitude": 1.348913,
        "longitude": 103.848669
    },
    {
        "address": "BLK 506/509 BISHAN STREET 11",
        "latitude": 1.34679145,
        "longitude": 103.852577761815
    },
    {
        "address": "BLK 511/513 BISHAN STREET 13",
        "latitude": 1.34858,
        "longitude": 103.851209
    },
    {
        "address": "BLK 514 BISHAN STREET 13",
        "latitude": 1.350643,
        "longitude": 103.850394
    },
    {
        "address": "BLK 201/206 BISHAN STREET 23",
        "latitude": 1.359152,
        "longitude": 103.848438
    },
    {
        "address": "BLK 207A BISHAN STREET 23",
        "latitude": 1.355125,
        "longitude": 103.848275
    },
    {
        "address": "BLK 207/212/216/217 BISHAN STREET 23",
        "latitude": 1.356681,
        "longitude": 103.849409
    },
    {
        "address": "BLK 212A BISHAN STREET 23",
        "latitude": 1.356655,
        "longitude": 103.848602
    },
    {
        "address": "BLK 213-215,218-227 BISHAN STREET 23",
        "latitude": 1.359152,
        "longitude": 103.848438
    },
    {
        "address": "BLK 228-231 BISHAN STREET 23",
        "latitude": 1.359152,
        "longitude": 103.848438
    },
    {
        "address": "BLK 401-408 SIN MING AVE",
        "latitude": 1.3628517,
        "longitude": 103.834742625
    },
    {
        "address": "BLK 410A SIN MING AVE",
        "latitude": 1.363388,
        "longitude": 103.835492
    },
    {
        "address": "BLK 231A BISHAN STREET 23",
        "latitude": 1.357445,
        "longitude": 103.846447
    },
    {
        "address": "BLK 232-237 BISHAN STREET 22",
        "latitude": 1.35804005,
        "longitude": 103.844768846373
    },
    {
        "address": "BLK 237A BISHAN STREET 22",
        "latitude": 1.359342,
        "longitude": 103.847271
    },
    {
        "address": "BLK 238-245 BISHAN STREET 22",
        "latitude": 1.35804005,
        "longitude": 103.844768846373
    },
    {
        "address": "BLK 246A BISHAN STREET 22",
        "latitude": 1.360981,
        "longitude": 103.843657
    },
    {
        "address": "BLK 246-256 BISHAN STREET 22",
        "latitude": 1.35804005,
        "longitude": 103.844768846373
    },
    {
        "address": "BLK 278-281 BISHAN STREET 24",
        "latitude": 1.357881325,
        "longitude": 103.843867557497
    },
    {
        "address": "BLK 282 BISHAN STREET 22",
        "latitude": 1.35804,
        "longitude": 103.844769
    },
    {
        "address": "BLK 283/284 BISHAN STREET 22",
        "latitude": 1.35804005,
        "longitude": 103.844768846373
    },
    {
        "address": "BLK 263A BISHAN STREET 22",
        "latitude": 1.358936,
        "longitude": 103.8425
    },
    {
        "address": "BLK 101-116 BISHAN STREET 12",
        "latitude": 1.3460931,
        "longitude": 103.850465416488
    },
    {
        "address": "BLK 268A BISHAN STREET 24",
        "latitude": 1.357342,
        "longitude": 103.842665
    },
    {
        "address": "BLK 290A BISHAN STREET 24",
        "latitude": 1.355685,
        "longitude": 103.8447
    },
    {
        "address": "BLK 448A BRIGHT HILL DRIVE",
        "latitude": 1.358288,
        "longitude": 103.83137
    },
    {
        "address": "BLK 275 BISHAN ST 24",
        "latitude": 1.356973,
        "longitude": 103.843295
    },
    {
        "address": "BLK 117-134 BISHAN STREET 12",
        "latitude": 1.3460931,
        "longitude": 103.850465416488
    },
    {
        "address": "BLK 135/138 BISHAN STREET 12",
        "latitude": 1.3460931,
        "longitude": 103.850465416488
    },
    {
        "address": "BLK 139-144 BISHAN STREET 12",
        "latitude": 1.3460931,
        "longitude": 103.850465416488
    },
    {
        "address": "BLK 145-150A, 151 BISHAN STREET 11",
        "latitude": 1.345299,
        "longitude": 103.855688
    },
    {
        "address": "BLK 153-167 BISHAN STREET 13",
        "latitude": 1.34858,
        "longitude": 103.851209
    },
    {
        "address": "BLK 1 THOMSON ROAD",
        "latitude": 1.325182,
        "longitude": 103.842121
    },
    {
        "address": "BLK 2 BALESTIER ROAD",
        "latitude": 1.325993,
        "longitude": 103.842216
    },
    {
        "address": "BLK 517 - 519 JELAPANG ROAD",
        "latitude": 1.387749,
        "longitude": 103.766285
    },
    {
        "address": "BLK 533 - 534 BUKIT PANJANG RING ROAD",
        "latitude": 1.384334,
        "longitude": 103.762411
    },
    {
        "address": "BLK 259B BANGKIT ROAD",
        "latitude": 1.376557,
        "longitude": 103.773382
    },
    {
        "address": "BLK 130-140 CASHEW ROAD",
        "latitude": 1.371569,
        "longitude": 103.7680081
    },
    {
        "address": "BLK 234-241 BUKIT PANJANG RING ROAD",
        "latitude": 1.3854326,
        "longitude": 103.7707007
    },
    {
        "address": "BLK 242-245 BUKIT PANJANG RING ROAD",
        "latitude": 1.3854326,
        "longitude": 103.7707007
    },
    {
        "address": "BLK 246-255 BANGKIT ROAD",
        "latitude": 1.379025,
        "longitude": 103.7744106
    },
    {
        "address": "BLK 270-277 BANGKIT ROAD",
        "latitude": 1.379025,
        "longitude": 103.7744106
    },
    {
        "address": "BLK 257 BANGKIT ROAD",
        "latitude": 1.378551,
        "longitude": 103.773223
    },
    {
        "address": "BLK 259A BANGKIT ROAD",
        "latitude": 1.376557,
        "longitude": 103.773382
    },
    {
        "address": "BLK 259A BANGKIT ROAD",
        "latitude": 1.376557,
        "longitude": 103.773382
    },
    {
        "address": "BLK 401A FAJAR ROAD",
        "latitude": 1.381019,
        "longitude": 103.769043
    },
    {
        "address": "BLK 401-408 FAJAR ROAD",
        "latitude": 1.3826773,
        "longitude": 103.7695851
    },
    {
        "address": "BLK 409-419 FAJAR ROAD",
        "latitude": 1.3826773,
        "longitude": 103.7695851
    },
    {
        "address": "BLK 141-151 GANGSA/PETIR ROAD",
        "latitude": 1.3743908,
        "longitude": 103.7694019
    },
    {
        "address": "BLK 420-426 FAJAR ROAD",
        "latitude": 1.3826773,
        "longitude": 103.7695851
    },
    {
        "address": "BLK 427-435 BUKIT PANJANG RING ROAD",
        "latitude": 1.3854326,
        "longitude": 103.7707007
    },
    {
        "address": "BLK 256/257/260 BANGKIT ROAD",
        "latitude": 1.379025,
        "longitude": 103.7744106
    },
    {
        "address": "BLK 258 BUKIT PANJANG RING ROAD",
        "latitude": 1.377893,
        "longitude": 103.773154
    },
    {
        "address": "BLK 436-441 FAJAR ROAD",
        "latitude": 1.3826773,
        "longitude": 103.7695851
    },
    {
        "address": "BLK 453A FAJAR ROAD",
        "latitude": 1.385411,
        "longitude": 103.771683
    },
    {
        "address": "BLK 449A BUKIT PANJANG RING ROAD",
        "latitude": 1.38407,
        "longitude": 103.772171
    },
    {
        "address": "BLK 442A FAJAR ROAD",
        "latitude": 1.382425,
        "longitude": 103.771285
    },
    {
        "address": "BLK 170A LOMPANG ROAD",
        "latitude": 1.380872,
        "longitude": 103.766037
    },
    {
        "address": "BLK 505A JELAPANG ROAD",
        "latitude": 1.383841,
        "longitude": 103.76757
    },
    {
        "address": "BLK 101/129 GANGSA ROAD/PENDING ROAD",
        "latitude": 1.3769992,
        "longitude": 103.7711739
    },
    {
        "address": "BLK 510A JELAPANG ROAD",
        "latitude": 1.387408,
        "longitude": 103.769207
    },
    {
        "address": "BLK 513A JELAPANG ROAD",
        "latitude": 1.388061,
        "longitude": 103.767705
    },
    {
        "address": "BLK 518A JELAPANG ROAD",
        "latitude": 1.387034,
        "longitude": 103.766927
    },
    {
        "address": "BLK 234A BUKIT PANJANG RING ROAD",
        "latitude": 1.378522,
        "longitude": 103.771816
    },
    {
        "address": "BLK 517A JELAPANG ROAD",
        "latitude": 1.388174,
        "longitude": 103.766572
    },
    {
        "address": "BLK 521A JELAPANG ROAD",
        "latitude": 1.387359,
        "longitude": 103.765986
    },
    {
        "address": "BLK 525A JELAPANG ROAD",
        "latitude": 1.386595,
        "longitude": 103.765398
    },
    {
        "address": "BLK 529A JELAPANG ROAD",
        "latitude": 1.385827,
        "longitude": 103.764627
    },
    {
        "address": "BLK 533A BUKIT PANJANG RING ROAD",
        "latitude": 1.384945,
        "longitude": 103.763655
    },
    {
        "address": "BLK 537A BUKIT PANJANG RING ROAD",
        "latitude": 1.383815,
        "longitude": 103.763067
    },
    {
        "address": "BLK 219/233 PETIR ROAD",
        "latitude": 1.3743908,
        "longitude": 103.7694019
    },
    {
        "address": "BLK 541A BUKIT PANJANG RING ROAD",
        "latitude": 1.382555,
        "longitude": 103.763366
    },
    {
        "address": "BLK 152A GANGSA ROAD",
        "latitude": 1.375226,
        "longitude": 103.765925
    },
    {
        "address": "BLK 163A GANGSA ROAD",
        "latitude": 1.376264,
        "longitude": 103.764452
    },
    {
        "address": "BLK 603A SENJA ROAD",
        "latitude": 1.381566,
        "longitude": 103.76213
    },
    {
        "address": "BLK 177A LOMPANG ROAD",
        "latitude": 1.380341,
        "longitude": 103.765265
    },
    {
        "address": "BLK 180A LOMPANG ROAD",
        "latitude": 1.378961,
        "longitude": 103.764896
    },
    {
        "address": "BLK 651A SENJA LINK",
        "latitude": 1.386612,
        "longitude": 103.763669
    },
    {
        "address": "BLK 611A/613A/615A/616A BUKIT PANJANG RING ROAD/SENJA ROAD",
        "latitude": 1.385013,
        "longitude": 103.762714
    },
    {
        "address": "BLK 225A PETIR ROAD MSCP",
        "latitude": 1.373991,
        "longitude": 103.772509
    },
    {
        "address": "BLK 468A SEGAR ROAD",
        "latitude": 1.389175,
        "longitude": 103.772553
    },
    {
        "address": "BLK 181A JELEBU ROAD",
        "latitude": 1.379261,
        "longitude": 103.762998
    },
    {
        "address": "BLK 185A JELEBU ROAD",
        "latitude": 1.379362,
        "longitude": 103.7623
    },
    {
        "address": "BLK 480A SEGAR ROAD",
        "latitude": 1.388794,
        "longitude": 103.770932
    },
    {
        "address": "BLK 476A SEGAR ROAD",
        "latitude": 1.389002,
        "longitude": 103.772915
    },
    {
        "address": "BLK 625A SENJA ROAD",
        "latitude": 1.385639,
        "longitude": 103.760319
    },
    {
        "address": "BLK 629A SENJA ROAD",
        "latitude": 1.386532,
        "longitude": 103.759278
    },
    {
        "address": "BLK 628 SENJA RD",
        "latitude": 1.384877,
        "longitude": 103.760236
    },
    {
        "address": "BLK 455A SEGAR ROAD",
        "latitude": 1.387394,
        "longitude": 103.770813
    },
    {
        "address": "BLK 488A SEGAR ROAD",
        "latitude": 1.389871,
        "longitude": 103.771263
    },
    {
        "address": "BLK 217A PETIR ROAD MSCP",
        "latitude": 1.374759,
        "longitude": 103.773787
    },
    {
        "address": "BLK 547 SEGAR ROAD",
        "latitude": 1.388318,
        "longitude": 103.769507
    },
    {
        "address": "BLK 548 SEGAR ROAD",
        "latitude": 1.389009,
        "longitude": 103.767798
    },
    {
        "address": "BLK 454 FAJAR ROAD",
        "latitude": 1.3845,
        "longitude": 103.771535
    },
    {
        "address": "BLK 443 FAJAR ROAD",
        "latitude": 1.381441,
        "longitude": 103.770279
    },
    {
        "address": "BLK 632 SENJA ROAD",
        "latitude": 1.385211,
        "longitude": 103.758188
    },
    {
        "address": "BLK 634 SENJA ROAD",
        "latitude": 1.386306,
        "longitude": 103.757588
    },
    {
        "address": "BLK 636 SENJA ROAD",
        "latitude": 1.387345,
        "longitude": 103.757972
    },
    {
        "address": "BLK 422A FAJAR ROAD",
        "latitude": 1.385014,
        "longitude": 103.769676
    },
    {
        "address": "BLK 643 SENJA CLOSE",
        "latitude": 1.38704,
        "longitude": 103.760559
    },
    {
        "address": "BLK 646 SENJA CLOSE",
        "latitude": 1.38704,
        "longitude": 103.760559
    },
    {
        "address": "BLK 201/218 PETIR ROAD",
        "latitude": 1.3743908,
        "longitude": 103.7694019
    },
    {
        "address": "BLK 668 CHANDER ROAD",
        "latitude": 1.30765,
        "longitude": 103.851392
    },
    {
        "address": "BLK 681/682 RACE COURSE ROAD",
        "latitude": 1.308242,
        "longitude": 103.850314
    },
    {
        "address": "BLK 682/683 RACE COURSE ROAD",
        "latitude": 1.308242,
        "longitude": 103.850314
    },
    {
        "address": "BLK 684/685 RACE COURSE ROAD",
        "latitude": 1.308242,
        "longitude": 103.850314
    },
    {
        "address": "BLK 678 PERUMAL ROAD",
        "latitude": 1.3131109,
        "longitude": 103.8555283
    },
    {
        "address": "BLK 668 CHANDER ROAD",
        "latitude": 1.30765,
        "longitude": 103.851392
    },
    {
        "address": "BLK 6A BOON KENG ROAD",
        "latitude": 1.316947,
        "longitude": 103.861015
    },
    {
        "address": "BLK 10 BENDEMEER ROAD",
        "latitude": 1.315057,
        "longitude": 103.860567
    },
    {
        "address": "BLK 188/191 BOON LAY DRIVE",
        "latitude": 1.34267,
        "longitude": 103.714412
    },
    {
        "address": "BLK 198/206 BOON LAY DRIVE",
        "latitude": 1.34267,
        "longitude": 103.714412
    },
    {
        "address": "BLK 257A BOON LAY DRIVE",
        "latitude": 1.346055,
        "longitude": 103.707568
    },
    {
        "address": "BLK 268 BOON LAY DRIVE",
        "latitude": 1.347838,
        "longitude": 103.707747
    },
    {
        "address": "BLK 208A BOON LAY PLACE",
        "latitude": 1.346561,
        "longitude": 103.714418
    },
    {
        "address": "BLK 212A BOON LAY PLACE",
        "latitude": 1.348844,
        "longitude": 103.713312
    },
    {
        "address": "180 BOON LAY DRIVE",
        "latitude": 1.348035,
        "longitude": 103.708158
    },
    {
        "address": "183 BOON LAY AVENUE",
        "latitude": 1.349287,
        "longitude": 103.709368
    },
    {
        "address": "196 BOON LAY DR",
        "latitude": 1.342533,
        "longitude": 103.713766
    },
    {
        "address": "216 BOON LAY AVE",
        "latitude": 1.349662,
        "longitude": 103.711745
    },
    {
        "address": "BLK 174/179 BOON LAY DRIVE",
        "latitude": 1.34267,
        "longitude": 103.714412
    },
    {
        "address": "BLK 221 BOON LAY PLACE",
        "latitude": 1.346435,
        "longitude": 103.712386
    },
    {
        "address": "BLK 221 BL8 BOON LAY PLACE",
        "latitude": 1.345779,
        "longitude": 103.713125
    },
    {
        "address": "BLK 185/187 BOON LAY AVE",
        "latitude": 1.34824445,
        "longitude": 103.709619601207
    },
    {
        "address": "BLK 126A BUKIT MERAH VIEW",
        "latitude": 1.284571,
        "longitude": 103.823285
    },
    {
        "address": "BLK 28 JALAN BUKIT MERAH",
        "latitude": 1.286527,
        "longitude": 103.809913
    },
    {
        "address": "BLK 56/57 LENGKOK BAHRU",
        "latitude": 1.2884463,
        "longitude": 103.812901082318
    },
    {
        "address": "BLK 55 LENGKOK BAHRU",
        "latitude": 1.287014,
        "longitude": 103.813353
    },
    {
        "address": "BLK 44/47 LENGKOK BAHRU",
        "latitude": 1.2884463,
        "longitude": 103.812901082318
    },
    {
        "address": "BLK 34-36 JALAN RUMAH TINGGI",
        "latitude": 1.28860365,
        "longitude": 103.808889052043
    },
    {
        "address": "BLK 88/89 REDHILL CLOSE",
        "latitude": 1.2856202,
        "longitude": 103.81716472344
    },
    {
        "address": "BLK 28 HOY FATT ROAD",
        "latitude": 1.286835,
        "longitude": 103.81032
    },
    {
        "address": "BLK 89/90 REDHILL CLOSE",
        "latitude": 1.2856202,
        "longitude": 103.81716472344
    },
    {
        "address": "BLK 17 REDHILL CLOSE",
        "latitude": 1.285218,
        "longitude": 103.817671
    },
    {
        "address": "BLK 13 REDHILL CLOSE",
        "latitude": 1.285416,
        "longitude": 103.816931
    },
    {
        "address": "BLK 1/3/5 JALAN BUKIT MERAH",
        "latitude": 1.284209475,
        "longitude": 103.81858246582
    },
    {
        "address": "BLK 115/116 BUKIT MERAH CENTRAL",
        "latitude": 1.284209475,
        "longitude": 103.81858246582
    },
    {
        "address": "BLK 117, 161 BUKIT MERAH CENTRAL",
        "latitude": 1.283552,
        "longitude": 103.815838
    },
    {
        "address": "BLK 163 BUKIT MERAH CENTRAL",
        "latitude": 1.283717,
        "longitude": 103.816913
    },
    {
        "address": "BLK 49/50 HOY FATT ROAD",
        "latitude": 1.2883979,
        "longitude": 103.811385652433
    },
    {
        "address": "BLK 164/165 BUKIT MERAH CENTRAL",
        "latitude": 1.284209475,
        "longitude": 103.81858246582
    },
    {
        "address": "BLK 119 BUKIT MERAH CENTRAL",
        "latitude": 1.28355,
        "longitude": 103.820896
    },
    {
        "address": "BLKS 167-169 JALAN BUKIT MERAH",
        "latitude": 1.284209475,
        "longitude": 103.81858246582
    },
    {
        "address": "BLK 8/9 REDHILL CLOSE",
        "latitude": 1.2856202,
        "longitude": 103.81716472344
    },
    {
        "address": "BLK 1/5/7 REDHILL CLOSE",
        "latitude": 1.2856202,
        "longitude": 103.81716472344
    },
    {
        "address": "JALAN BUKIT MERAH",
        "latitude": 1.284209475,
        "longitude": 103.81858246582
    },
    {
        "address": "BLK 35A JALAN RUMAH TINGGI",
        "latitude": 1.287692,
        "longitude": 103.808928
    },
    {
        "address": "BLKS 8/10 JALAN RUMAH TINGGI",
        "latitude": 1.28860365,
        "longitude": 103.808889052043
    },
    {
        "address": "BLK 61 LENGKOK BAHRU",
        "latitude": 1.289874,
        "longitude": 103.813806
    },
    {
        "address": "BLK 58/59 LENGKOK BAHRU",
        "latitude": 1.2884463,
        "longitude": 103.812901082318
    },
    {
        "address": "BLK 101/109 BUKIT PURMEI ROAD",
        "latitude": 1.27344625,
        "longitude": 103.825828290672
    },
    {
        "address": "BLK 110/115 BUKIT PURMEI ROAD",
        "latitude": 1.27344625,
        "longitude": 103.825828290672
    },
    {
        "address": "BLK 665 BUFFALO ROAD LOADING/UNLOADING BAYS",
        "latitude": 1.306081,
        "longitude": 103.850576
    },
    {
        "address": "BLK 665 BUFFALO ROAD BASEMENT CAR PARK",
        "latitude": 1.311114,
        "longitude": 103.856431
    },
    {
        "address": "BLK 39 BENDEMEER ROAD",
        "latitude": 1.320729,
        "longitude": 103.866247
    },
    {
        "address": "BLK 112A WHAMPOA ROAD",
        "latitude": 1.326107,
        "longitude": 103.85705
    },
    {
        "address": "BLK 32A JALAN BAHAGIA",
        "latitude": 1.325994,
        "longitude": 103.857719
    },
    {
        "address": "BLK 98A WHAMPOA DRIVE",
        "latitude": 1.32169,
        "longitude": 103.854413
    },
    {
        "address": "BLK 85A WHAMPOA DRIVE",
        "latitude": 1.322941,
        "longitude": 103.856328
    },
    {
        "address": "BLK 19A JALAN TENTERAM",
        "latitude": 1.327484,
        "longitude": 103.859511
    },
    {
        "address": "BLK 116 JALAN TENTERAM",
        "latitude": 1.328121,
        "longitude": 103.86125
    },
    {
        "address": "BLK 78A LORONG LIMAU",
        "latitude": 1.324384,
        "longitude": 103.855405
    },
    {
        "address": "BLK 90 WHAMPOA DRIVE",
        "latitude": 1.323025,
        "longitude": 103.855026
    },
    {
        "address": "BLK 20 JALAN TENTERAM",
        "latitude": 1.326904,
        "longitude": 103.859704
    },
    {
        "address": "BLK 111A ST MICHAEL BUS TERMINAL",
        "latitude": 1.326171,
        "longitude": 103.85546
    },
    {
        "address": "BLK 61/62 JALAN MA'MOR",
        "latitude": 1.3283607,
        "longitude": 103.8571672
    },
    {
        "address": "BLK 81/89 WHAMPOA DRIVE",
        "latitude": 1.323087,
        "longitude": 103.854825
    },
    {
        "address": "BLK 74/75 WHAMPOA DRIVE",
        "latitude": 1.323087,
        "longitude": 103.854825
    },
    {
        "address": "BLK 92 WHAMPOA DRIVE",
        "latitude": 1.323179,
        "longitude": 103.853858
    },
    {
        "address": "BLK 76/77 LORONG LIMAU",
        "latitude": 1.32447365,
        "longitude": 103.85481874066
    },
    {
        "address": "BLK 69 MOULMEIN ROAD",
        "latitude": 1.318943,
        "longitude": 103.85052
    },
    {
        "address": "BLK 2B BOON TIONG ROAD",
        "latitude": 1.287104,
        "longitude": 103.833788
    },
    {
        "address": "BLK 8C BOON TIONG RD",
        "latitude": 1.286633,
        "longitude": 103.83006
    },
    {
        "address": "BLK 11A BOON TIONG ROAD",
        "latitude": 1.286103,
        "longitude": 103.828923
    },
    {
        "address": "BLK 129A BUKIT MERAH VIEW",
        "latitude": 1.283584,
        "longitude": 103.823362
    },
    {
        "address": "BLK 2A JLN BUKIT MERAH",
        "latitude": 1.286947,
        "longitude": 103.806846
    },
    {
        "address": "BLK 404/413 BEDOK NORTH AVENUE 3",
        "latitude": 1.424876,
        "longitude": 103.834127
    },
    {
        "address": "BLK 431 BEDOK NORTH ROAD",
        "latitude": 1.329111,
        "longitude": 103.933093
    },
    {
        "address": "BLK 416/418 BEDOK NORTH AVENUE 2",
        "latitude": 1.330033275,
        "longitude": 103.929924725
    },
    {
        "address": "BLK 420/421 BEDOK NORTH STREET 1",
        "latitude": 1.433292,
        "longitude": 103.775685
    },
    {
        "address": "BLK 414/425 BEDOK NORTH ROAD",
        "latitude": 1.330118,
        "longitude": 103.929
    },
    {
        "address": "BLK 412/413 BEDOK NORTH AVENUE 2",
        "latitude": 1.330033275,
        "longitude": 103.929924725
    },
    {
        "address": "BLKS 59, 62-65 NEW UPPER CHANGI ROAD",
        "latitude": 1.3256242,
        "longitude": 103.936930632066
    },
    {
        "address": "BLK 52/57 NEW UPPER CHANGI ROAD",
        "latitude": 1.3256242,
        "longitude": 103.936930632066
    },
    {
        "address": "BLK 36-44, 60 BEDOK SOUTH ROAD",
        "latitude": 1.320805,
        "longitude": 103.943156
    },
    {
        "address": "BLK 67/73 BEDOK SOUTH ROAD",
        "latitude": 1.320276,
        "longitude": 103.936415
    },
    {
        "address": "BLK 74/82 BEDOK NORTH ROAD",
        "latitude": 1.330118,
        "longitude": 103.929
    },
    {
        "address": "BLK 187 BEDOK NORTH ST 4",
        "latitude": 1.330923,
        "longitude": 103.940083
    },
    {
        "address": "BLK 84/89 BEDOK NORTH AVENUE 4",
        "latitude": 1.3350627,
        "longitude": 103.94236004667
    },
    {
        "address": "BLK 84 BEDOK NORTH STREET 4",
        "latitude": 1.331848,
        "longitude": 103.939412
    },
    {
        "address": "BLK 91/97 BEDOK NORTH AVENUE 4",
        "latitude": 1.3350627,
        "longitude": 103.94236004667
    },
    {
        "address": "BLK 98/100 BEDOK NORTH AVENUE 4",
        "latitude": 1.3350627,
        "longitude": 103.94236004667
    },
    {
        "address": "BLK 101/106 BEDOK NORTH AVENUE 4",
        "latitude": 1.3350627,
        "longitude": 103.94236004667
    },
    {
        "address": "BLK 107/110 BEDOK NORTH ROAD",
        "latitude": 1.330118,
        "longitude": 103.929
    },
    {
        "address": "BLK 119/123 BEDOK NORTH STREET 2",
        "latitude": 1.328317,
        "longitude": 103.936588467807
    },
    {
        "address": "BLK 124/129 BEDOK NORTH STREET 2",
        "latitude": 1.328317,
        "longitude": 103.936588467807
    },
    {
        "address": "BLK 130/132 BEDOK NORTH STREET 2",
        "latitude": 1.328317,
        "longitude": 103.936588467807
    },
    {
        "address": "BLK 131/133 BEDOK NORTH AVENUE 3",
        "latitude": 1.424876,
        "longitude": 103.834127
    },
    {
        "address": "BLK 134/136 BEDOK NORTH AVENUE 3",
        "latitude": 1.424876,
        "longitude": 103.834127
    },
    {
        "address": "BLK 137/140 BEDOK NORTH AVENUE 3",
        "latitude": 1.424876,
        "longitude": 103.834127
    },
    {
        "address": "BLK 504/508 BEDOK NORTH STREET 3",
        "latitude": 1.332679825,
        "longitude": 103.928156936777
    },
    {
        "address": "BLK 510 BEDOK NORTH STREET 3",
        "latitude": 1.332231,
        "longitude": 103.930676
    },
    {
        "address": "BLK 509/511 BEDOK NORTH STREET 3",
        "latitude": 1.332679825,
        "longitude": 103.928156936777
    },
    {
        "address": "BLK 519/522 553 BEDOK NORTH AVENUE 1/2",
        "latitude": 1.331469,
        "longitude": 103.92778
    },
    {
        "address": "BLK 528/536 BEDOK NORTH STREET 3",
        "latitude": 1.332679825,
        "longitude": 103.928156936777
    },
    {
        "address": "BLK 523/527 BEDOK NORTH STREET 3",
        "latitude": 1.332679825,
        "longitude": 103.928156936777
    },
    {
        "address": "BLKS 556/557 BEDOK NORTH STREET 3",
        "latitude": 1.332679825,
        "longitude": 103.928156936777
    },
    {
        "address": "BLK 537/539 BEDOK NORTH STREET 3",
        "latitude": 1.332679825,
        "longitude": 103.928156936777
    },
    {
        "address": "BLK 537 BEDOK NORTH STREET 3",
        "latitude": 1.332013,
        "longitude": 103.923692
    },
    {
        "address": "BLK 540/542 BEDOK NORTH STREET 3",
        "latitude": 1.332679825,
        "longitude": 103.928156936777
    },
    {
        "address": "BLK 543/547 BEDOK NORTH STREET 3",
        "latitude": 1.332679825,
        "longitude": 103.928156936777
    },
    {
        "address": "BLK 547C BEDOK NORTH AVENUE 1",
        "latitude": 1.32978,
        "longitude": 103.92541
    },
    {
        "address": "BLK 549/551 BEDOK NORTH AVENUE 1",
        "latitude": 1.328608,
        "longitude": 103.927163
    },
    {
        "address": "BLK 601/605 BEDOK RESERVOIR ROAD",
        "latitude": 1.333135,
        "longitude": 103.91422
    },
    {
        "address": "BLK 606/610 BEDOK RESERVOIR ROAD",
        "latitude": 1.333135,
        "longitude": 103.91422
    },
    {
        "address": "BLK 609A BEDOK RESERVOIR ROAD",
        "latitude": 1.331784,
        "longitude": 103.911825
    },
    {
        "address": "BLK 611/616 BEDOK RESERVOIR ROAD",
        "latitude": 1.333135,
        "longitude": 103.91422
    },
    {
        "address": "BLK 617/624 BEDOK RESERVOIR ROAD",
        "latitude": 1.333135,
        "longitude": 103.91422
    },
    {
        "address": "BLK 625/629 BEDOK RESERVOIR ROAD",
        "latitude": 1.333135,
        "longitude": 103.91422
    },
    {
        "address": "BLK 630/632 BEDOK RESERVOIR ROAD",
        "latitude": 1.333135,
        "longitude": 103.91422
    },
    {
        "address": "BLK 701/708 BEDOK RESERVOIR ROAD",
        "latitude": 1.333135,
        "longitude": 103.91422
    },
    {
        "address": "BLK 716/718/721 BEDOK RESERVOIR ROAD",
        "latitude": 1.333135,
        "longitude": 103.91422
    },
    {
        "address": "BLK 204/209 NEW UPPER CHANGI ROAD",
        "latitude": 1.3256242,
        "longitude": 103.936930632066
    },
    {
        "address": "BLK 208A NEW UPPER CHANGI ROAD",
        "latitude": 1.325146,
        "longitude": 103.930871
    },
    {
        "address": "BLK 23 BEDOK SOUTH AVENUE 1",
        "latitude": 1.323295,
        "longitude": 103.932781
    },
    {
        "address": "BLK 722/725 BEDOK RESERVOIR ROAD",
        "latitude": 1.333135,
        "longitude": 103.91422
    },
    {
        "address": "BLK 739/745 BEDOK RESERVOIR ROAD",
        "latitude": 1.333135,
        "longitude": 103.91422
    },
    {
        "address": "BLK 155/172 BEDOK SOUTH ROAD/AVE 3",
        "latitude": 1.321356,
        "longitude": 103.935143
    },
    {
        "address": "BLK 152A BEDOK SOUTH ROAD",
        "latitude": 1.317732,
        "longitude": 103.947769
    },
    {
        "address": "BLK 154 BEDOK SOUTH ROAD",
        "latitude": 1.318276,
        "longitude": 103.946629
    },
    {
        "address": "BLK 637A BEDOK RESERVOIR ROAD",
        "latitude": 1.33048,
        "longitude": 103.904405
    },
    {
        "address": "BLK 649A JALAN TENAGA",
        "latitude": 1.332094,
        "longitude": 103.906354
    },
    {
        "address": "BLK 10A BEDOK SOUTH AVENUE 2",
        "latitude": 1.322577,
        "longitude": 103.936837
    },
    {
        "address": "BLK 94A BEDOK NORTH AVENUE 4",
        "latitude": 1.333436,
        "longitude": 103.942022
    },
    {
        "address": "BLK 211/218 BEDOK NORTH STREET 1",
        "latitude": 1.433292,
        "longitude": 103.775685
    },
    {
        "address": "BLK 216/218 BEDOK NORTH ST 1",
        "latitude": 1.433292,
        "longitude": 103.775685
    },
    {
        "address": "BEDOK CENTRAL",
        "latitude": 1.325651,
        "longitude": 103.931339
    },
    {
        "address": "BLK 201 BEDOK NORTH ST 1",
        "latitude": 1.326055,
        "longitude": 103.928221
    },
    {
        "address": "BLK 29C CHAI CHEE AVENUE",
        "latitude": 1.324756,
        "longitude": 103.924316
    },
    {
        "address": "BLK 660A JALAN TENAGA",
        "latitude": 1.334409,
        "longitude": 103.907435
    },
    {
        "address": "BLK 651A JALAN TENAGA",
        "latitude": 1.3323,
        "longitude": 103.906653
    },
    {
        "address": "BLK 671A JALAN DAMAI",
        "latitude": 1.332826,
        "longitude": 103.908948
    },
    {
        "address": "BLK 613C BEDOK RESERVOIR ROAD",
        "latitude": 1.33314,
        "longitude": 103.917562
    },
    {
        "address": "BLK 761A BEDOK RESERVOIR VIEW",
        "latitude": 1.335903,
        "longitude": 103.934393
    },
    {
        "address": "BLK 765A BEDOK RESERVOIR VIEW",
        "latitude": 1.335697,
        "longitude": 103.936334
    },
    {
        "address": "BLK 769A BEDOK RESERVOIR VIEW",
        "latitude": 1.335611,
        "longitude": 103.93827
    },
    {
        "address": "BLK 772A BEDOK RESERVOIR VIEW",
        "latitude": 1.3368,
        "longitude": 103.937346
    },
    {
        "address": "BLK 201/203 BEDOK NORTH STREET 1",
        "latitude": 1.433292,
        "longitude": 103.775685
    },
    {
        "address": "BLK 222 BEDOK NORTH DRIVE",
        "latitude": 1.324548,
        "longitude": 103.92807
    },
    {
        "address": "BLK 739A BEDOK RESERVOIR ROAD",
        "latitude": 1.338197,
        "longitude": 103.923384
    },
    {
        "address": "BLK 30A NEW UPPER CHANGI ROAD",
        "latitude": 1.323154,
        "longitude": 103.934977
    },
    {
        "address": "BLK 509B BEDOK NORTH STREET 3",
        "latitude": 1.333677,
        "longitude": 103.930422
    },
    {
        "address": "BLK 21A CHAI CHEE ROAD",
        "latitude": 1.326471,
        "longitude": 103.922296
    },
    {
        "address": "BLK 215A BEDOK CENTRAL",
        "latitude": 1.326244,
        "longitude": 103.934199
    },
    {
        "address": "BLK 184 BEDOK NORTH RD",
        "latitude": 1.325979,
        "longitude": 103.941462
    },
    {
        "address": "BLK 114A BEDOK NORTH ST 2",
        "latitude": 1.330717,
        "longitude": 103.93552
    },
    {
        "address": "BLK 13A BEDOK SOUTH RD",
        "latitude": 1.320507,
        "longitude": 103.936196
    },
    {
        "address": "BLK 34A BED0K SOUTH AVE 2",
        "latitude": 1.323036,
        "longitude": 103.933781
    },
    {
        "address": "BLK 116A BEDOK NORTH ROAD",
        "latitude": 1.330926,
        "longitude": 103.937305
    },
    {
        "address": "BLK 402/403 BEDOK NORTH AVENUE 3",
        "latitude": 1.424876,
        "longitude": 103.834127
    },
    {
        "address": "BLK 35A BEDOK SOUTH AVE 2",
        "latitude": 1.322582,
        "longitude": 103.939766
    },
    {
        "address": "BLK 630 BEDOK RESERVOIR ROAD",
        "latitude": 1.332947,
        "longitude": 103.914223
    },
    {
        "address": "BLK 2A BEDOK SOUTH AVE 1",
        "latitude": 1.321931,
        "longitude": 103.933933
    },
    {
        "address": "BLK 19A BEDOK SOUTH ROAD",
        "latitude": 1.320432,
        "longitude": 103.934216
    },
    {
        "address": "BLK 513A BEDOK NORTH AVE 2",
        "latitude": 1.33221,
        "longitude": 103.929448
    },
    {
        "address": "BLK 512 TO 518, 554 BEDOK NORTH AVE 2",
        "latitude": 1.331738,
        "longitude": 103.93029
    },
    {
        "address": "BLK 220 BEDOK CENTRAL",
        "latitude": 1.325561,
        "longitude": 103.935071
    },
    {
        "address": "BLK 219 BEDOK CENTRAL",
        "latitude": 1.324829,
        "longitude": 103.933033
    },
    {
        "address": "BLK 714A BEDOK RESERVOIR ROAD",
        "latitude": 1.336498,
        "longitude": 103.923479
    },
    {
        "address": "BLK 748 BEDOK RESERVOIR CRESCENT",
        "latitude": 1.3422100000000001,
        "longitude": 103.9256075
    },
    {
        "address": "BLK 807 CHAI CHEE ROAD",
        "latitude": 1.327868,
        "longitude": 103.923021
    },
    {
        "address": "BLK 88 TANGLIN HALT RD",
        "latitude": 1.301604,
        "longitude": 103.798353
    },
    {
        "address": "309 CHOA CHU KANG AVE 4",
        "latitude": 1.38504,
        "longitude": 103.745637
    },
    {
        "address": "BLK 84A COMMONWEALTH CLOSE",
        "latitude": 1.303632,
        "longitude": 103.799472
    },
    {
        "address": "BLK 1/2 CHAI CHEE STREET",
        "latitude": 1.32804505,
        "longitude": 103.921860592888
    },
    {
        "address": "BLK 43/45 CHAI CHEE STREET",
        "latitude": 1.32804505,
        "longitude": 103.921860592888
    },
    {
        "address": "BLK 50/54 CHAI CHEE STREET",
        "latitude": 1.32804505,
        "longitude": 103.921860592888
    },
    {
        "address": "BLK 11 CHAI CHEE ROAD",
        "latitude": 1.326897,
        "longitude": 103.924897
    },
    {
        "address": "BLK 22/24, 59/63, 803/805 CHAI CHEE ROAD",
        "latitude": 1.3260784,
        "longitude": 103.923099445696
    },
    {
        "address": "BLK 27 CHAI CHEE ROAD",
        "latitude": 1.32417,
        "longitude": 103.923498
    },
    {
        "address": "BLK 25-27 CHAI CHEE ROAD",
        "latitude": 1.3260784,
        "longitude": 103.923099445696
    },
    {
        "address": "BLK 30/40 CHAI CHEE AVENUE",
        "latitude": 1.32459035,
        "longitude": 103.924967667143
    },
    {
        "address": "BLK 55/58 CHAI CHEE DRIVE",
        "latitude": 1.323694125,
        "longitude": 103.919798796826
    },
    {
        "address": "BLK 41/42 CHAI CHEE STREET",
        "latitude": 1.32804505,
        "longitude": 103.921860592888
    },
    {
        "address": "BLK 355 CHOA CHU KANG CENTRAL",
        "latitude": 1.383104,
        "longitude": 103.743859
    },
    {
        "address": "BLK 429A CHOA CHU KANG AVENUE 4",
        "latitude": 1.383509,
        "longitude": 103.740884
    },
    {
        "address": "BLK 625A CHOA CHU KANG STREET 62",
        "latitude": 1.398642,
        "longitude": 103.746089
    },
    {
        "address": "BLK 445A CHOA CHU KANG AVE 4",
        "latitude": 1.381828,
        "longitude": 103.736829
    },
    {
        "address": "BLK 474A CHOA CHU KANG AVE 3",
        "latitude": 1.378476,
        "longitude": 103.736677
    },
    {
        "address": "BLK 450A CHOA CHU KANG AVE 4",
        "latitude": 1.379542,
        "longitude": 103.736079
    },
    {
        "address": "BLK 462A CHOA CHU KANG AVE 4",
        "latitude": 1.37751,
        "longitude": 103.735173
    },
    {
        "address": "BLK 483A CHOA CHU KANG AVE 5",
        "latitude": 1.375945,
        "longitude": 103.737733
    },
    {
        "address": "BLK 486A CHOA CHU KANG AVE 5",
        "latitude": 1.375052,
        "longitude": 103.738439
    },
    {
        "address": "BLK 297B CHOA CHU KANG AVE 2",
        "latitude": 1.377084,
        "longitude": 103.741911
    },
    {
        "address": "BLK BETWEEN 404 & 426 CHOA CHU KANG AVENUE 1/4",
        "latitude": 1.380666,
        "longitude": 103.739044
    },
    {
        "address": "BLK 302 CHOA CHU KANG LOOP",
        "latitude": 1.384592,
        "longitude": 103.745406
    },
    {
        "address": "BLK 101/108 TECK WHYE LANE",
        "latitude": 1.379283775,
        "longitude": 103.752886073949
    },
    {
        "address": "BLK 227A CHOA CHU KANG CENTRAL",
        "latitude": 1.380531,
        "longitude": 103.745416
    },
    {
        "address": "BLK 287A CHOA CHU KANG AVENUE 2",
        "latitude": 1.378754,
        "longitude": 103.741923
    },
    {
        "address": "BLK 409/413 CHOA CHU KANG AVE 3",
        "latitude": 1.379456,
        "longitude": 103.738417
    },
    {
        "address": "BLK 414-420 CHOA CHU KANG AVENUE 4",
        "latitude": 1.381203375,
        "longitude": 103.740017173142
    },
    {
        "address": "BLK 278/287 CHOA CHU KANG AVENUE 2/3",
        "latitude": 1.379456,
        "longitude": 103.738417
    },
    {
        "address": "BLK 288/295 CHOA CHU KANG AVENUE 2/3",
        "latitude": 1.379456,
        "longitude": 103.738417
    },
    {
        "address": "BLK 401/408 CHOA CHU KANG AVE 3",
        "latitude": 1.379456,
        "longitude": 103.738417
    },
    {
        "address": "BLK 421/428 CHOA CHU KANG AVENUE 4",
        "latitude": 1.381203375,
        "longitude": 103.740017173142
    },
    {
        "address": "BLK 130/132 CHOA CHU KANG AVE 1",
        "latitude": 1.377507025,
        "longitude": 103.747501397226
    },
    {
        "address": "BLK 133/134 TECK WHYE LANE",
        "latitude": 1.379283775,
        "longitude": 103.752886073949
    },
    {
        "address": "BLK 109/117 TECK WHYE LANE",
        "latitude": 1.379283775,
        "longitude": 103.752886073949
    },
    {
        "address": "BLK 429, 438-441 CHOA CHU KANG AVENUE 4",
        "latitude": 1.381203375,
        "longitude": 103.740017173142
    },
    {
        "address": "BLK 343A CHOA CHU KANG LOOP",
        "latitude": 1.383823,
        "longitude": 103.745942
    },
    {
        "address": "BLK 430-437 CHOA CHU KANG AVENUE 4",
        "latitude": 1.381203375,
        "longitude": 103.740017173142
    },
    {
        "address": "BLK 350-351 CHOA CHU KANG CENTRAL",
        "latitude": 1.3908930000000002,
        "longitude": 103.749588
    },
    {
        "address": "BLK 352-355 CHOA CHU KANG CENTRAL",
        "latitude": 1.3908930000000002,
        "longitude": 103.749588
    },
    {
        "address": "BLK 302, 304-308 CHOA CHU KANG LOOP",
        "latitude": 1.3867046,
        "longitude": 103.7436803
    },
    {
        "address": "BLK 276A CHOA CHU KANG AVENUE 2",
        "latitude": 1.380045,
        "longitude": 103.744219
    },
    {
        "address": "BLK 276/277 CHOA CHU KANG AVENUE 2",
        "latitude": 1.3781163,
        "longitude": 103.7430462
    },
    {
        "address": "BLK 118/124 TECK WHYE LANE",
        "latitude": 1.379283775,
        "longitude": 103.752886073949
    },
    {
        "address": "BLK 118A TECK WHYE LANE",
        "latitude": 1.379508,
        "longitude": 103.749995
    },
    {
        "address": "BLK 248/250 CHOA CHU KANG AVENUE 2",
        "latitude": 1.3781163,
        "longitude": 103.7430462
    },
    {
        "address": "BLK 251A CHOA CHU KANG AVENUE 2",
        "latitude": 1.378289,
        "longitude": 103.744571
    },
    {
        "address": "BLK 253A CHOA CHU KANG AVE 1",
        "latitude": 1.377597,
        "longitude": 103.744416
    },
    {
        "address": "BLK 502A CHOA CHU KANG STREET 51",
        "latitude": 1.389141,
        "longitude": 103.743372
    },
    {
        "address": "BLK 511A CHOA CHU KANG STREET 51",
        "latitude": 1.38935,
        "longitude": 103.740868
    },
    {
        "address": "BLK 513A CHOA CHU KANG STREET 51",
        "latitude": 1.389821,
        "longitude": 103.742506
    },
    {
        "address": "BLK 527A CHOA CHU KANG STREET 51",
        "latitude": 1.391882,
        "longitude": 103.74156
    },
    {
        "address": "BLK 552A CHOA CHU KANG STREET 52",
        "latitude": 1.394567,
        "longitude": 103.742535
    },
    {
        "address": "BLK 541A CHOA CHU KANG STREET 52",
        "latitude": 1.392924,
        "longitude": 103.744318
    },
    {
        "address": "BLK 559A CHOA CHU KANG NORTH 6",
        "latitude": 1.395977,
        "longitude": 103.744636
    },
    {
        "address": "BLK 135-138,141,142 & 145 TECK WHYE LANE/AVE",
        "latitude": 1.380294,
        "longitude": 103.753596
    },
    {
        "address": "BLK 144/145 TECK WHYE LANE/AVE",
        "latitude": 1.379283775,
        "longitude": 103.752886073949
    },
    {
        "address": "BLK 567A CHOA CHU KANG STREET 52",
        "latitude": 1.395045,
        "longitude": 103.745997
    },
    {
        "address": "BLK 708A CHOA CHU KANG STREET 53",
        "latitude": 1.391483,
        "longitude": 103.746949
    },
    {
        "address": "BLK 754A CHOA CHU KANG NORTH 5",
        "latitude": 1.392935,
        "longitude": 103.746379
    },
    {
        "address": "BLK 762A CHOA CHU KANG NTH 5",
        "latitude": 1.392517,
        "longitude": 103.748622
    },
    {
        "address": "BLK 771A CHOA CHU KANG ST 54",
        "latitude": 1.394399,
        "longitude": 103.749311
    },
    {
        "address": "BLK 792A CHOA CHU KANG NTH 6",
        "latitude": 1.395177,
        "longitude": 103.749049
    },
    {
        "address": "BLK 787A CHOA CHU KANG DRIVE",
        "latitude": 1.395445,
        "longitude": 103.748067
    },
    {
        "address": "BLK 604A CHOA CHU KANG ST 62",
        "latitude": 1.398115,
        "longitude": 103.74472
    },
    {
        "address": "BLK 610A CHOA CHU KANG ST 62",
        "latitude": 1.399364,
        "longitude": 103.743766
    },
    {
        "address": "BLK 139 & 140 TECK WHYE LANE/AVE",
        "latitude": 1.379992,
        "longitude": 103.753127
    },
    {
        "address": "BLK 611A CHOA CHU KANG ST 62",
        "latitude": 1.399807,
        "longitude": 103.743835
    },
    {
        "address": "BLK 621A CHOA CHU KANG NORTH 7",
        "latitude": 1.400666,
        "longitude": 103.747675
    },
    {
        "address": "BLK 659A/660A/661A CHOA CHU KANG CRESCENT",
        "latitude": 1.399588,
        "longitude": 103.750428
    },
    {
        "address": "BLK 668A CHOA CHU KANG CRESCENT",
        "latitude": 1.399588,
        "longitude": 103.750428
    },
    {
        "address": "BLK 638-643 CHOA CHU KANG STREET 64",
        "latitude": 1.3983449,
        "longitude": 103.749813
    },
    {
        "address": "BLK 631-637 & 636A CHOA CHU KANG NORTH 6",
        "latitude": 1.397272,
        "longitude": 103.748932
    },
    {
        "address": "BLK 675A CHOA CHU KANG CRESCENT",
        "latitude": 1.399588,
        "longitude": 103.750428
    },
    {
        "address": "BLK 669A CHOA CHU KANG CRESCENT",
        "latitude": 1.399588,
        "longitude": 103.750428
    },
    {
        "address": "BLK 678A CHOA CHU KANG CRESCENT",
        "latitude": 1.399588,
        "longitude": 103.750428
    },
    {
        "address": "BLK 297A CHOA CHU KANG AVE 2",
        "latitude": 1.377084,
        "longitude": 103.741911
    },
    {
        "address": "BLK 143, 144 & 146 TECK WHYE LANE",
        "latitude": 1.38108,
        "longitude": 103.753142
    },
    {
        "address": "BLK 146A 146A TECK WHYE AVENUE",
        "latitude": 1.381117,
        "longitude": 103.752527
    },
    {
        "address": "BLK 683 CHOA CHU KANG CRESCENT",
        "latitude": 1.403878,
        "longitude": 103.745607
    },
    {
        "address": "BLK 686 CHOA CHU KANG CRESCENT",
        "latitude": 1.399588,
        "longitude": 103.750428
    },
    {
        "address": "BLK 687 CHOA CHU KANG DRIVE",
        "latitude": 1.404463,
        "longitude": 103.750132
    },
    {
        "address": "BLK 689 CHOA CHU KANG CRESCENT",
        "latitude": 1.399588,
        "longitude": 103.750428
    },
    {
        "address": "BLK 692 CHOA CHU KANG CRESCENT",
        "latitude": 1.399588,
        "longitude": 103.750428
    },
    {
        "address": "BLK 535,536 AND 537 CHOA CHU KANG STREET 51",
        "latitude": 1.392124,
        "longitude": 103.744201
    },
    {
        "address": "BLK 573A CHOA CHU KANG STREET 52",
        "latitude": 1.394019,
        "longitude": 103.745523
    },
    {
        "address": "BLK 135A TECK WHYE LANE",
        "latitude": 1.380282,
        "longitude": 103.751963
    },
    {
        "address": "BLK 476 CHOA CHU KANG AVE 5",
        "latitude": 1.376928,
        "longitude": 103.738139
    },
    {
        "address": "BLK 488 CHOA CHU KANG AVE 5",
        "latitude": 1.376714,
        "longitude": 103.7387
    },
    {
        "address": "BLK 489 CHOA CHU KANG AVE 5",
        "latitude": 1.375604,
        "longitude": 103.740919
    },
    {
        "address": "BLK 801 KEAT HONG CLOSE",
        "latitude": 1.375242,
        "longitude": 103.743447
    },
    {
        "address": "BLK 805 KEAT HONG CLOSE",
        "latitude": 1.373386,
        "longitude": 103.743106
    },
    {
        "address": "BLK 809 CHOA CHU KANG AVENUE 1",
        "latitude": 1.37566,
        "longitude": 103.744191
    },
    {
        "address": "BLK 810 CHOA CHU KANG AVE 7",
        "latitude": 1.373958,
        "longitude": 103.746243
    },
    {
        "address": "BLK 815 CHOA CHU KANG AVE 7",
        "latitude": 1.376564,
        "longitude": 103.74673
    },
    {
        "address": "817 KEAT HONG LINK",
        "latitude": 1.37806,
        "longitude": 103.748928
    },
    {
        "address": "BLK 201-221 CHOA CHU KANG CENTRAL",
        "latitude": 1.3908930000000002,
        "longitude": 103.749588
    },
    {
        "address": "BLK 203A CHOA CHU KANG AVE 1/CENTRAL",
        "latitude": 1.381193,
        "longitude": 103.748924
    },
    {
        "address": "BLK 223-227 CHOA CHU KANG CENTRAL",
        "latitude": 1.3908930000000002,
        "longitude": 103.749588
    },
    {
        "address": "BLK 228-239 CHOA CHU KANG CENTRAL",
        "latitude": 1.3908930000000002,
        "longitude": 103.749588
    },
    {
        "address": "BLK 129A CLARENCE LANE",
        "latitude": 1.292907,
        "longitude": 103.814132
    },
    {
        "address": "312 CLEMENTI AVE 4",
        "latitude": 1.318981,
        "longitude": 103.763973
    },
    {
        "address": "BLK 311 CLEMENTI AVE 4",
        "latitude": 1.319349,
        "longitude": 103.765147
    },
    {
        "address": "BLK 10 CANTONMENT CLOSE",
        "latitude": 1.274504,
        "longitude": 103.839248
    },
    {
        "address": "BLK 1/3/15/17 BEACH ROAD",
        "latitude": 1.303954,
        "longitude": 103.863437
    },
    {
        "address": "BLK 2 BEACH ROAD",
        "latitude": 1.303244,
        "longitude": 103.86488
    },
    {
        "address": "BLK 3 BEACH ROAD",
        "latitude": 1.30422,
        "longitude": 103.865446
    },
    {
        "address": "BLK 3/4 BEACH ROAD",
        "latitude": 1.308722,
        "longitude": 103.911008
    },
    {
        "address": "BLK 29/30 KELANTAN LANE",
        "latitude": 1.3065294,
        "longitude": 103.856558125
    },
    {
        "address": "BLK 9 NORTH BRIDGE ROAD",
        "latitude": 1.304917,
        "longitude": 103.864242
    },
    {
        "address": "BLK 639/640 ROWELL COURT",
        "latitude": 1.373209,
        "longitude": 103.933462
    },
    {
        "address": "BLK 632/633/635 VEERASAMY ROAD",
        "latitude": 1.307133125,
        "longitude": 103.854501906736
    },
    {
        "address": "BLK 7 NORTH BRIDGE ROAD",
        "latitude": 1.334667,
        "longitude": 103.776673
    },
    {
        "address": "BLK 10 NORTH BRIDGE ROAD",
        "latitude": 1.305557,
        "longitude": 103.863564
    },
    {
        "address": "BLK 464/463 CRAWFORD LANE",
        "latitude": 1.305036575,
        "longitude": 103.861942818577
    },
    {
        "address": "BLK 54 CHIN SWEE ROAD MSCP",
        "latitude": 1.287447,
        "longitude": 103.841175
    },
    {
        "address": "BLK 441 COMMONWEALTH AVE WEST",
        "latitude": 1.315014,
        "longitude": 103.764341
    },
    {
        "address": "BLK 8C BOON KENG ROAD",
        "latitude": 1.316525,
        "longitude": 103.861057
    },
    {
        "address": "BLK 1/1A TELOK PAKU ROAD",
        "latitude": 1.3892291,
        "longitude": 103.9899164
    },
    {
        "address": "BLK 3 CHANGI VILLAGE ROAD",
        "latitude": 1.389658,
        "longitude": 103.988092
    },
    {
        "address": "BLK 5 CHANGI VILLAGE ROAD",
        "latitude": 1.388832,
        "longitude": 103.986826
    },
    {
        "address": "BLK 6 CHANGI VILLAGE ROAD",
        "latitude": 1.389926,
        "longitude": 103.988711
    },
    {
        "address": "BLK 269/269A/269B CHENG YAN COURT CAR PARK",
        "latitude": 1.354351,
        "longitude": 103.986454
    },
    {
        "address": "BLK 339,341,344-345,371-381 CLEMENTI AVENUE 5",
        "latitude": 1.317553425,
        "longitude": 103.768011092206
    },
    {
        "address": "BLK 321-322,324-326 CLEMENTI AVENUE 5",
        "latitude": 1.317553425,
        "longitude": 103.768011092206
    },
    {
        "address": "BLK 301-302,305-308 CLEMENTI AVENUE 4",
        "latitude": 1.320254975,
        "longitude": 103.766013932437
    },
    {
        "address": "BLK 309A CLEMENTI AVE 4",
        "latitude": 1.320534,
        "longitude": 103.766362
    },
    {
        "address": "BLK 318A CLEMENTI AVE 4",
        "latitude": 1.31728,
        "longitude": 103.765185
    },
    {
        "address": "BLK 440 CLEMENTI AVE 3",
        "latitude": 1.316217,
        "longitude": 103.763565
    },
    {
        "address": "BLK 430-435 CLEMENTI AVE 3",
        "latitude": 1.314111675,
        "longitude": 103.764452032652
    },
    {
        "address": "BLK 442-444,442A CLEMENTI AVE 3",
        "latitude": 1.314112,
        "longitude": 103.764452
    },
    {
        "address": "BLK 426/428 CLEMENTI AVE 3",
        "latitude": 1.314111675,
        "longitude": 103.764452032652
    },
    {
        "address": "BLK 426/427 CLEMENTI AVE 3",
        "latitude": 1.314111675,
        "longitude": 103.764452032652
    },
    {
        "address": "BLK 445 CLEMENTI AVE3",
        "latitude": 1.313288,
        "longitude": 103.763906
    },
    {
        "address": "BLK 449-451 CLEMENTI AVE 3",
        "latitude": 1.314111675,
        "longitude": 103.764452032652
    },
    {
        "address": "BLK 462A CLEMENTI AVENUE 3",
        "latitude": 1.311445,
        "longitude": 103.765623
    },
    {
        "address": "BLK 454 TO 460 CLEMENTI AVE 3",
        "latitude": 1.311142,
        "longitude": 103.76698
    },
    {
        "address": "BLK 455A CLEMENTI AVE 3",
        "latitude": 1.311893,
        "longitude": 103.766792
    },
    {
        "address": "BLK 109A CLEMENTI ST 11",
        "latitude": 1.321662,
        "longitude": 103.770358
    },
    {
        "address": "BLK 110/118 CLEMENTI STREET 13",
        "latitude": 1.32392005,
        "longitude": 103.77054803625
    },
    {
        "address": "BLK 101-104 CLEMENTI STREET 14",
        "latitude": 1.32269205,
        "longitude": 103.768933440311
    },
    {
        "address": "BLK 105-107 CLEMENTI STREET 12",
        "latitude": 1.32224845,
        "longitude": 103.769953849956
    },
    {
        "address": "BLK 108/109 CLEMENTI STREET 11",
        "latitude": 1.322114325,
        "longitude": 103.770257579278
    },
    {
        "address": "BLK 201/206 CLEMENTI AVENUE 6",
        "latitude": 1.323885,
        "longitude": 103.764217
    },
    {
        "address": "BLK 208 CLEMENTI AVE 6",
        "latitude": 1.323885,
        "longitude": 103.764217
    },
    {
        "address": "BLK 501-505 WEST COAST DRIVE",
        "latitude": 1.3140705,
        "longitude": 103.759516360288
    },
    {
        "address": "BLK 503 WEST COAST DRIVE",
        "latitude": 1.31179,
        "longitude": 103.759768
    },
    {
        "address": "BLK 416A CLEMENTI AVE 1",
        "latitude": 1.317783,
        "longitude": 103.766093
    },
    {
        "address": "BLK 419, 420 AND 420A CLEMENTI AVE 1",
        "latitude": 1.376126,
        "longitude": 103.895271
    },
    {
        "address": "BLK 507-509 WEST COAST DRIVE",
        "latitude": 1.3140705,
        "longitude": 103.759516360288
    },
    {
        "address": "BLK 510/511 WEST COAST ROAD",
        "latitude": 1.3082021,
        "longitude": 103.759016771684
    },
    {
        "address": "BLK 514-519 WEST COAST ROAD",
        "latitude": 1.3082021,
        "longitude": 103.759016771684
    },
    {
        "address": "BLK 601-613 CLEMENTI WEST STREET 1",
        "latitude": 1.346713,
        "longitude": 103.741515
    },
    {
        "address": "BLK 702/703 WEST COAST ROAD",
        "latitude": 1.3082021,
        "longitude": 103.759016771684
    },
    {
        "address": "BLK 704-714 CLEMENTI WEST STREET 2",
        "latitude": 1.304246275,
        "longitude": 103.762839268542
    },
    {
        "address": "BLK 728/729 CLEMENTI WEST STREET 2",
        "latitude": 1.304246275,
        "longitude": 103.762839268542
    },
    {
        "address": "BLK 720-727,730-731 CLEMENTI WEST STREET 2",
        "latitude": 1.304246275,
        "longitude": 103.762839268542
    },
    {
        "address": "BLK 715-717 CLEMENTI WEST STREET 2",
        "latitude": 1.304246275,
        "longitude": 103.762839268542
    },
    {
        "address": "CLEMENTI SPORTS COMPLEX",
        "latitude": 1.445485,
        "longitude": 103.783635
    },
    {
        "address": "BLK 413A COMMONWEALTH AVENUE WEST",
        "latitude": 1.311521,
        "longitude": 103.770609
    },
    {
        "address": "CLEMENTI WOODS",
        "latitude": 1.299825,
        "longitude": 103.767396
    },
    {
        "address": "BLK 358-360,362-363,366-367 CLEMENTI AVE 2",
        "latitude": 1.314159,
        "longitude": 103.770843
    },
    {
        "address": "BLK 328-334 CLEMENTI AVE 2",
        "latitude": 1.314159,
        "longitude": 103.770843
    },
    {
        "address": "BLK 349-355 CLEMENTI AVE 2",
        "latitude": 1.314159,
        "longitude": 103.770843
    },
    {
        "address": "BLK 335/338 CLEMENTI AVE 2",
        "latitude": 1.314159,
        "longitude": 103.770843
    },
    {
        "address": "BLK 340/342/343/346-348 CLEMENTI AVE 5",
        "latitude": 1.317553425,
        "longitude": 103.768011092206
    },
    {
        "address": "BLK 104C DEPOT ROAD",
        "latitude": 1.280784,
        "longitude": 103.811729
    },
    {
        "address": "BLK 112C DEPOT ROAD",
        "latitude": 1.281297,
        "longitude": 103.807904
    },
    {
        "address": "108A DEPOT ROAD",
        "latitude": 1.280865,
        "longitude": 103.81013
    },
    {
        "address": "BLK 105 DEPOT ROAD",
        "latitude": 1.280901,
        "longitude": 103.812386
    },
    {
        "address": "BLOCK 110 DEPOT ROAD",
        "latitude": 1.281453,
        "longitude": 103.808789
    },
    {
        "address": "BLK 102A/102B DEPOT ROAD",
        "latitude": 1.280335,
        "longitude": 103.813538
    },
    {
        "address": "BLK 38A MARGARET DRIVE",
        "latitude": 1.297459,
        "longitude": 103.804741
    },
    {
        "address": "BLK 31A MARGARET DRIVE",
        "latitude": 1.298548,
        "longitude": 103.803523
    },
    {
        "address": "BLK 37A MARGARET DRIVE",
        "latitude": 1.297824,
        "longitude": 103.80562
    },
    {
        "address": "BLK 1 CANTONMENT ROAD",
        "latitude": 1.277025,
        "longitude": 103.841918
    },
    {
        "address": "BLK 40 & 41 MARGARET DRIVE",
        "latitude": 1.296464,
        "longitude": 103.806886
    },
    {
        "address": "BLK 95A DAWSON ROAD",
        "latitude": 1.29609,
        "longitude": 103.811975
    },
    {
        "address": "BLK 89A DAWSON ROAD",
        "latitude": 1.295207,
        "longitude": 103.811996
    },
    {
        "address": "BLK 85 DAWSON ROAD",
        "latitude": 1.295408,
        "longitude": 103.809826
    },
    {
        "address": "BLK 78A DAWSON ROAD",
        "latitude": 1.292486,
        "longitude": 103.81035
    },
    {
        "address": "BLK 31A EUNOS CRESCENT",
        "latitude": 1.320222,
        "longitude": 103.901351
    },
    {
        "address": "BLK 12-25 EUNOS CRESCENT",
        "latitude": 1.320391,
        "longitude": 103.904111
    },
    {
        "address": "BLK 5-8/11/4A EUNOS CRESCENT",
        "latitude": 1.320391,
        "longitude": 103.904111
    },
    {
        "address": "BLK 1-3/1A EUNOS CRESCENT",
        "latitude": 1.320391,
        "longitude": 103.904111
    },
    {
        "address": "BLK 9-10 EUNOS CRESCENT",
        "latitude": 1.320391,
        "longitude": 103.904111
    },
    {
        "address": "BLK 842-848 SIMS AVENUE",
        "latitude": 1.31975895,
        "longitude": 103.9099341
    },
    {
        "address": "BLK 842 TO 848 SIM AVENUE",
        "latitude": 1.317367,
        "longitude": 103.901262
    },
    {
        "address": "BLK 2A EUNOS MRT SIMS AVENUE",
        "latitude": 1.31975895,
        "longitude": 103.9099341
    },
    {
        "address": "BLK 410/411/414-417 EUNOS ROAD 5",
        "latitude": 1.318179,
        "longitude": 103.896991
    },
    {
        "address": "BLK 1/7 EVERTON PARK",
        "latitude": 1.27620015,
        "longitude": 103.8389516
    },
    {
        "address": "BLK 6A EVERTON ROAD",
        "latitude": 1.27548,
        "longitude": 103.839121
    },
    {
        "address": "BLK 808 FRENCH ROAD MSCP",
        "latitude": 1.308741,
        "longitude": 103.861812
    },
    {
        "address": "BLK 3/4 QUEEN'S ROAD",
        "latitude": 1.32034735,
        "longitude": 103.8088542
    },
    {
        "address": "BLK 2/3/4 QUEEN'S ROAD",
        "latitude": 1.32034735,
        "longitude": 103.8088542
    },
    {
        "address": "BLK 8A EMPRESS ROAD",
        "latitude": 1.316613,
        "longitude": 103.806199
    },
    {
        "address": "BLK 6A FARRER ROAD",
        "latitude": 1.317323,
        "longitude": 103.80806
    },
    {
        "address": "BLK 60A GEYLANG BAHRU",
        "latitude": 1.323295,
        "longitude": 103.868483
    },
    {
        "address": "BLK 118 ALJUNIED AVE 2",
        "latitude": 1.320022,
        "longitude": 103.88634
    },
    {
        "address": "BLK 118 ALJUNIED AVE 2",
        "latitude": 1.320022,
        "longitude": 103.88634
    },
    {
        "address": "BLK 99-106/111-112 ALJUNIED CRESCENT",
        "latitude": 1.321905,
        "longitude": 103.8861
    },
    {
        "address": "BLK 114-117 ALJUNIED AVENUE 2",
        "latitude": 1.31967,
        "longitude": 103.886455
    },
    {
        "address": "BLK 119 ALJUNIED CRESCENT",
        "latitude": 1.321905,
        "longitude": 103.8861
    },
    {
        "address": "BLK 1005-1012 ALJUNIED CRESCENT",
        "latitude": 1.321905,
        "longitude": 103.8861
    },
    {
        "address": "BLK 109-110 ALJUNIED CRESCENT",
        "latitude": 1.321905,
        "longitude": 103.8861
    },
    {
        "address": "BLK 107-108 ALJUNIED CRESCENT",
        "latitude": 1.321905,
        "longitude": 103.8861
    },
    {
        "address": "BLK 95 & 113 ALJUNIED CRESCENT",
        "latitude": 1.321905,
        "longitude": 103.8861
    },
    {
        "address": "BLK 120 TO 123 GEYLANG EAST CENTRAL",
        "latitude": 1.318581,
        "longitude": 103.885224
    },
    {
        "address": "BLK 124 TO 128 GEYLANG EAST AVE 1",
        "latitude": 1.317842,
        "longitude": 103.890741
    },
    {
        "address": "BLK 129-134 GEYLANG EAST AVE 1/2",
        "latitude": 1.316186,
        "longitude": 103.884163
    },
    {
        "address": "BLK 24 GHIM MOH LINK",
        "latitude": 1.308414,
        "longitude": 103.786533
    },
    {
        "address": "BLK 2A GHIM MOH ROAD",
        "latitude": 1.312608,
        "longitude": 103.786958
    },
    {
        "address": "BLK 5A GHIM MOH RD",
        "latitude": 1.312949,
        "longitude": 103.788215
    },
    {
        "address": "31A GHIM MOH LINK",
        "latitude": 1.309356,
        "longitude": 103.784568
    },
    {
        "address": "BLK 7/8/9 GHIM MOH ROAD",
        "latitude": 1.3111377,
        "longitude": 103.7875596
    },
    {
        "address": "BLK 8A GHIM MOH RD",
        "latitude": 1.310869,
        "longitude": 103.787264
    },
    {
        "address": "BLK 19/20 GHIM MOH ROAD",
        "latitude": 1.3111377,
        "longitude": 103.7875596
    },
    {
        "address": "BLK 21 GHIM MOH ROAD",
        "latitude": 1.310126,
        "longitude": 103.788319
    },
    {
        "address": "BLK 13A GHIM MOH RD",
        "latitude": 1.30945,
        "longitude": 103.788777
    },
    {
        "address": "BLK 16A GHIM MOH ROAD",
        "latitude": 1.309634,
        "longitude": 103.78763
    },
    {
        "address": "BLK 2 GEYLANG SERAI",
        "latitude": 1.317242,
        "longitude": 103.898287
    },
    {
        "address": "BLK 2 GEYLANG SERAI",
        "latitude": 1.317242,
        "longitude": 103.898287
    },
    {
        "address": "BLK 104A HENDERSON CRESCENT",
        "latitude": 1.289347,
        "longitude": 103.821591
    },
    {
        "address": "BLK 480 480 LORONG 6 TOA PAYOH",
        "latitude": 1.331867,
        "longitude": 103.848497
    },
    {
        "address": "BLK 102/103/104 HENDERSON CRESCENT",
        "latitude": 1.2937254999999999,
        "longitude": 103.8169485
    },
    {
        "address": "BLK 78/81 REDHILL LANE",
        "latitude": 1.28645165,
        "longitude": 103.818547204775
    },
    {
        "address": "BLK 115 BUKIT MERAH VIEW",
        "latitude": 1.284809,
        "longitude": 103.822229
    },
    {
        "address": "BLK 93/96 HENDERSON RD",
        "latitude": 1.2810501,
        "longitude": 103.8187452
    },
    {
        "address": "ALEXANDRA RD",
        "latitude": 1.28704295,
        "longitude": 103.805560953081
    },
    {
        "address": "BLK 105 HENDERSON RD",
        "latitude": 1.289994,
        "longitude": 103.822725
    },
    {
        "address": "BLK 116 BUKIT MERAH VIEW",
        "latitude": 1.285,
        "longitude": 103.821328
    },
    {
        "address": "BLK 116/117 BUKIT MERAH VIEW",
        "latitude": 1.2848863,
        "longitude": 103.8227854
    },
    {
        "address": "BLK 121/122 & 127 BUKIT MERAH VIEW",
        "latitude": 1.285634,
        "longitude": 103.822644
    },
    {
        "address": "BLK 118/119 BUKIT MERAH VIEW",
        "latitude": 1.2848863,
        "longitude": 103.8227854
    },
    {
        "address": "BLK 1,2,6,7 HOUGANG AVE 3",
        "latitude": 1.364511,
        "longitude": 103.89075
    },
    {
        "address": "BLK 470 UPPER SERANGOON CRESCENT",
        "latitude": 1.378717,
        "longitude": 103.901879
    },
    {
        "address": "BLK 475 UPPER SERANGOON CRESCENT",
        "latitude": 1.375726,
        "longitude": 103.900646
    },
    {
        "address": "BLK 476 UPP SERANGOON VIEW",
        "latitude": 1.377358,
        "longitude": 103.903745
    },
    {
        "address": "BLK 376 HOUGANG ST 32",
        "latitude": 1.363777,
        "longitude": 103.894164
    },
    {
        "address": "BLK 377 HG 1E HOUGANG STREET 32",
        "latitude": 1.363356,
        "longitude": 103.895649
    },
    {
        "address": "BLK 229 HOUGANG STREET 21",
        "latitude": 1.357704,
        "longitude": 103.883394
    },
    {
        "address": "BLK 101-108 HOUGANG AVENUE 1",
        "latitude": 1.356383,
        "longitude": 103.888815
    },
    {
        "address": "BLK 301-319 HOUGANG AVENUE 5",
        "latitude": 1.3668142,
        "longitude": 103.8960362
    },
    {
        "address": "BLK 320-324 HOUGANG AVENUE 5",
        "latitude": 1.3668142,
        "longitude": 103.8960362
    },
    {
        "address": "BLK 325/326 HOUGANG AVENUE 7",
        "latitude": 1.3697457,
        "longitude": 103.8988756
    },
    {
        "address": "BLK 327-328,332-334,358-363 HOUGANG AVENUE 5",
        "latitude": 1.3668142,
        "longitude": 103.8960362
    },
    {
        "address": "BLK 208-210 HOUGANG STREET 21",
        "latitude": 1.357771825,
        "longitude": 103.886261678425
    },
    {
        "address": "BLK 211-212 HOUGANG STREET 21",
        "latitude": 1.357771825,
        "longitude": 103.886261678425
    },
    {
        "address": "BLK 231/233/235/237 HOUGANG STREET 21",
        "latitude": 1.356745,
        "longitude": 103.88871
    },
    {
        "address": "BLK 230/232/234/236/238 HOUGANG AVENUE 1",
        "latitude": 1.356383,
        "longitude": 103.888815
    },
    {
        "address": "BLK 138-145 LORONG AH SOO",
        "latitude": 1.354108,
        "longitude": 103.889612
    },
    {
        "address": "BLK 15-18 HOUGANG AVE 3",
        "latitude": 1.355209625,
        "longitude": 103.892609284283
    },
    {
        "address": "BLK 473 UPP SERANGOON CRESCENT",
        "latitude": 1.376457,
        "longitude": 103.900634
    },
    {
        "address": "BLK 933 HOUGANG AVENUE 9",
        "latitude": 1.375038,
        "longitude": 103.881455
    },
    {
        "address": "BLK 364 / 365 UPP SERANGOON RD",
        "latitude": 1.32918,
        "longitude": 103.868541
    },
    {
        "address": "BLK 128-137 LORONG AH SOO",
        "latitude": 1.354108,
        "longitude": 103.889612
    },
    {
        "address": "BLK 154-157 HOUGANG STREET 11",
        "latitude": 1.3522504,
        "longitude": 103.8801437
    },
    {
        "address": "BLK 239-246 HOUGANG STREET 22",
        "latitude": 1.3576386,
        "longitude": 103.8917079
    },
    {
        "address": "BLK 247-254 HOUGANG AVENUE 3",
        "latitude": 1.355209625,
        "longitude": 103.892609284283
    },
    {
        "address": "BLK 205 HOUGANG STREET 21",
        "latitude": 1.359422,
        "longitude": 103.885077
    },
    {
        "address": "BLK 335-341 HOUGANG AVENUE 7",
        "latitude": 1.3697457,
        "longitude": 103.8988756
    },
    {
        "address": "BLK 351-357 HOUGANG AVENUE 7",
        "latitude": 1.3697457,
        "longitude": 103.8988756
    },
    {
        "address": "BLK 997 BUANGKOK CRESCENT",
        "latitude": 1.380065,
        "longitude": 103.879841
    },
    {
        "address": "BLK 991 BUANGKOK LINK",
        "latitude": 1.384021,
        "longitude": 103.882102
    },
    {
        "address": "BLK 996 BUANGKOK CRESCENT",
        "latitude": 1.380065,
        "longitude": 103.879841
    },
    {
        "address": "BLK 998 BUANGKOK CRESCENT",
        "latitude": 1.380065,
        "longitude": 103.879841
    },
    {
        "address": "BLK 993 BUANGKOK LINK",
        "latitude": 1.383728,
        "longitude": 103.882889
    },
    {
        "address": "BLK 993A-993B, 994A-994C, 995A-995D, BUANGKOK CRESCENT/BUANGKOK LINK",
        "latitude": 1.3840207,
        "longitude": 103.882101502731
    },
    {
        "address": "BLK 464-468 HOUGANG AVENUE 10",
        "latitude": 1.374275,
        "longitude": 103.895382
    },
    {
        "address": "BLK 414-416 HOUGANG AVENUE 10",
        "latitude": 1.374275,
        "longitude": 103.895382
    },
    {
        "address": "BLK 601-608 HOUGANG AVENUE 4",
        "latitude": 1.3744432,
        "longitude": 103.8856498
    },
    {
        "address": "BLK 609-621 HOUGANG AVENUE 8",
        "latitude": 1.3741266,
        "longitude": 103.888065133343
    },
    {
        "address": "BLK 622-632 HOUGANG AVENUE 8",
        "latitude": 1.3741266,
        "longitude": 103.888065133343
    },
    {
        "address": "BLK 701-702,707-710 HOUGANG AVENUE 2",
        "latitude": 1.3673774,
        "longitude": 103.8870535
    },
    {
        "address": "BLK 703-706,711-712 HOUGANG AVENUE 2",
        "latitude": 1.3673774,
        "longitude": 103.8870535
    },
    {
        "address": "BLKS 501-507 HOUGANG AVENUE 8",
        "latitude": 1.3741266,
        "longitude": 103.888065133343
    },
    {
        "address": "BLK 508-517,520-533 HOUGANG AVENUE 10",
        "latitude": 1.374275,
        "longitude": 103.895382
    },
    {
        "address": "HOUGANG SPORTS COMPLEX",
        "latitude": 1.366218,
        "longitude": 103.888358
    },
    {
        "address": "BLK 19-23 HOUGANG AVE 3",
        "latitude": 1.355209625,
        "longitude": 103.892609284283
    },
    {
        "address": "BLK 1 TO 32, 37 TO 38 DEFU LANE 10",
        "latitude": 1.352124,
        "longitude": 103.891433
    },
    {
        "address": "BLK 633-642 & 647-648 HOUGANG AVENUE 8",
        "latitude": 1.3741266,
        "longitude": 103.888065133343
    },
    {
        "address": "BLK 643-646/649-662/665-667 HOUGANG AVENUE 8",
        "latitude": 1.3741266,
        "longitude": 103.888065133343
    },
    {
        "address": "BLK 668-680 HOUGANG AVENUE 8",
        "latitude": 1.3741266,
        "longitude": 103.888065133343
    },
    {
        "address": "BLK 685-691 HOUGANG STREET 61",
        "latitude": 1.376064,
        "longitude": 103.884973
    },
    {
        "address": "BLK 692-698 HOUGANG STREET 61",
        "latitude": 1.376064,
        "longitude": 103.884973
    },
    {
        "address": "BLK 805 HOUGANG CENTRAL",
        "latitude": 1.370447,
        "longitude": 103.894505
    },
    {
        "address": "BLK 24/25 HOUGANG AVE 3",
        "latitude": 1.355209625,
        "longitude": 103.892609284283
    },
    {
        "address": "BLK 534-545 HOUGANG AVENUE 8",
        "latitude": 1.3741266,
        "longitude": 103.888065133343
    },
    {
        "address": "BLK 546-555 HOUGANG STREET 51",
        "latitude": 1.3799663,
        "longitude": 103.888746
    },
    {
        "address": "BLK 556-566 HOUGANG STREET 51",
        "latitude": 1.3799663,
        "longitude": 103.888746
    },
    {
        "address": "BLK 830A HOUGANG CENTRAL",
        "latitude": 1.370811,
        "longitude": 103.890656
    },
    {
        "address": "BLK 220-222 HOUGANG STREET 21",
        "latitude": 1.357771825,
        "longitude": 103.886261678425
    },
    {
        "address": "BLK 814 HOUGANG AVENUE 10",
        "latitude": 1.372211,
        "longitude": 103.893208
    },
    {
        "address": "BLK 830-835 HOUGANG CENTRAL",
        "latitude": 1.369752,
        "longitude": 103.891406
    },
    {
        "address": "DEFU LANE 7",
        "latitude": 1.3560494,
        "longitude": 103.8975139
    },
    {
        "address": "DEFU LANE 8",
        "latitude": 1.3562321,
        "longitude": 103.8963098
    },
    {
        "address": "DEFU LANE 9",
        "latitude": 1.3510203,
        "longitude": 103.8938003
    },
    {
        "address": "BLK 548A HOUGANG STREET 51",
        "latitude": 1.379514,
        "longitude": 103.891315
    },
    {
        "address": "BLK 559A HOUGANG STREET 51",
        "latitude": 1.380026,
        "longitude": 103.889497
    },
    {
        "address": "BLK 566A HOUGANG STREET 51",
        "latitude": 1.380891,
        "longitude": 103.888553
    },
    {
        "address": "BLK 465A UPPER SERANGOON ROAD",
        "latitude": 1.371938,
        "longitude": 103.896854
    },
    {
        "address": "BLK 682-684 HOUGANG STREET 61",
        "latitude": 1.376064,
        "longitude": 103.884973
    },
    {
        "address": "DEFU LANE 11",
        "latitude": 1.34242035,
        "longitude": 103.893023223838
    },
    {
        "address": "DEFU LANE 12",
        "latitude": 1.340292,
        "longitude": 103.896398
    },
    {
        "address": "BLK 401-413, 460-463 HOUGANG AVENUE 10",
        "latitude": 1.374275,
        "longitude": 103.895382
    },
    {
        "address": "BLK 838A HOUGANG CENTRAL",
        "latitude": 1.370152,
        "longitude": 103.891243
    },
    {
        "address": "BLK 850A HOUGANG CENTRAL",
        "latitude": 1.369689,
        "longitude": 103.893417
    },
    {
        "address": "BLK 109-127 HOUGANG AVENUE 1",
        "latitude": 1.356383,
        "longitude": 103.888815
    },
    {
        "address": "BLK 567A HOUGANG STREET 51",
        "latitude": 1.378688,
        "longitude": 103.889005
    },
    {
        "address": "BLK 574A HOUGANG STREET 51",
        "latitude": 1.377473,
        "longitude": 103.88692
    },
    {
        "address": "BLK 576A HOUGANG AVENUE 4",
        "latitude": 1.373123,
        "longitude": 103.892701
    },
    {
        "address": "BLK 909A HOUGANG STREET 91",
        "latitude": 1.378289,
        "longitude": 103.883566
    },
    {
        "address": "BLK 166A HOUGANG AVENUE 1",
        "latitude": 1.351348,
        "longitude": 103.888305
    },
    {
        "address": "BLK 172A HOUGANG AVENUE 1",
        "latitude": 1.35058,
        "longitude": 103.889496
    },
    {
        "address": "BLK 159A HOUGANG STREET 11",
        "latitude": 1.352099,
        "longitude": 103.87888
    },
    {
        "address": "BLK 919A HOUGANG AVENUE 4",
        "latitude": 1.364296,
        "longitude": 103.892075
    },
    {
        "address": "BLK 925A HOUGANG STREET 91",
        "latitude": 1.376706,
        "longitude": 103.88249
    },
    {
        "address": "BLK 931A HOUGANG STREET 91",
        "latitude": 1.37554,
        "longitude": 103.880556
    },
    {
        "address": "BLK 941A HOUGANG STREET 92",
        "latitude": 1.373611,
        "longitude": 103.879221
    },
    {
        "address": "DEFU LANE 1",
        "latitude": 1.340292,
        "longitude": 103.896398
    },
    {
        "address": "DEFU LANE 2",
        "latitude": 1.36055485,
        "longitude": 103.90209053353
    },
    {
        "address": "DEFU LANE 3",
        "latitude": 1.3580328,
        "longitude": 103.9013637
    },
    {
        "address": "DEFU LANE 5",
        "latitude": 1.3599171,
        "longitude": 103.8985618
    },
    {
        "address": "DEFU LANE 6",
        "latitude": 1.3598502,
        "longitude": 103.8978021
    },
    {
        "address": "BLK 946A HOUGANG STREET 92",
        "latitude": 1.374842,
        "longitude": 103.881049
    },
    {
        "address": "BLK 955A HOUGANG AVENUE 9",
        "latitude": 1.376224,
        "longitude": 103.878275
    },
    {
        "address": "BLK 699D HOUGANG STREET 52",
        "latitude": 1.376119,
        "longitude": 103.889241
    },
    {
        "address": "BLK 435A HOUGANG AVE 8",
        "latitude": 1.378939,
        "longitude": 103.895062
    },
    {
        "address": "BLK 201-204 HOUGANG STREET 21",
        "latitude": 1.357771825,
        "longitude": 103.886261678425
    },
    {
        "address": "BLK 206 HOUGANG ST 21",
        "latitude": 1.358437,
        "longitude": 103.885357
    },
    {
        "address": "BLK 966A HOUGANG AVENUE 9",
        "latitude": 1.378231,
        "longitude": 103.87828
    },
    {
        "address": "BLK 971A HOUGANG STREET 91",
        "latitude": 1.378302,
        "longitude": 103.879779
    },
    {
        "address": "BLK 373A HOUGANG STREET 31",
        "latitude": 1.362617,
        "longitude": 103.890473
    },
    {
        "address": "BLK 980 BUANGKOK CRESCENT",
        "latitude": 1.380081,
        "longitude": 103.879832
    },
    {
        "address": "BLK 984 BUANGKOK LINK",
        "latitude": 1.382445,
        "longitude": 103.880864
    },
    {
        "address": "BLK 105 HOUGANG AVENUE 1",
        "latitude": 1.353978,
        "longitude": 103.890115
    },
    {
        "address": "BLK 108 HOUGANG AVE 1",
        "latitude": 1.352989,
        "longitude": 103.890351
    },
    {
        "address": "BLK 804 HOUGANG AVE 10",
        "latitude": 1.372942,
        "longitude": 103.894201
    },
    {
        "address": "BLK 174A-174D HOUGANG AVENUE 1",
        "latitude": 1.349131,
        "longitude": 103.888466
    },
    {
        "address": "BLK 533A HONG LIM MSCP",
        "latitude": 1.38052,
        "longitude": 103.764685
    },
    {
        "address": "BLK 96 HENDERSON ROAD",
        "latitude": 1.287533,
        "longitude": 103.821374
    },
    {
        "address": "BLK 1-3 HAIG RD",
        "latitude": 1.315126,
        "longitude": 103.89558
    },
    {
        "address": "BLK 4-6 HAIG RD",
        "latitude": 1.312095,
        "longitude": 103.897179
    },
    {
        "address": "BLK 7 TO 9 HAIG RD",
        "latitude": 1.314436,
        "longitude": 103.896064
    },
    {
        "address": "BLK 10 TO 14 HAIG RD",
        "latitude": 1.315394,
        "longitude": 103.895432
    },
    {
        "address": "BLK 21 TO 23 HAIG RD",
        "latitude": 1.313543,
        "longitude": 103.895489
    },
    {
        "address": "BLK 51 HAVELOCK ROAD",
        "latitude": 1.290853,
        "longitude": 103.828608
    },
    {
        "address": "BLK 34 JALAN BUKIT HO SWEE",
        "latitude": 1.288073,
        "longitude": 103.827079
    },
    {
        "address": "BLK 1/5 DELTA AVE",
        "latitude": 1.292094,
        "longitude": 103.826576
    },
    {
        "address": "BLK 96 HAVELOCK ROAD MSCP",
        "latitude": 1.289246,
        "longitude": 103.840001
    },
    {
        "address": "BLK 568 GANGES AVENUE",
        "latitude": 1.289956,
        "longitude": 103.831047
    },
    {
        "address": "BLK 28A BEO CRESCENT",
        "latitude": 1.288807,
        "longitude": 103.827483
    },
    {
        "address": "BLK 44A HAVELOCK ROAD",
        "latitude": 1.28991,
        "longitude": 103.826999
    },
    {
        "address": "BLK 87 ZION RD",
        "latitude": 1.290635,
        "longitude": 103.83277
    },
    {
        "address": "BLK 991A TO 991B,992A TO 992B BUANGKOK LINK",
        "latitude": 1.383604,
        "longitude": 103.882764
    },
    {
        "address": "BLK 998A TO 998B,999A TO 999B BUANGKOK CRESCENT",
        "latitude": 1.380065,
        "longitude": 103.879841
    },
    {
        "address": "BLK 22 HAVELOCK RD",
        "latitude": 1.288728,
        "longitude": 103.828838
    },
    {
        "address": "BLK 644,645,652,655 HOUGANG AVENUE 8",
        "latitude": 1.373048,
        "longitude": 103.881938
    },
    {
        "address": "BLK 77/79 GANGES AVENUE",
        "latitude": 1.2914966,
        "longitude": 103.831707414362
    },
    {
        "address": "BLK 78A INDUS RD",
        "latitude": 1.291292,
        "longitude": 103.82747
    },
    {
        "address": "BLKS 4-8 TAMAN HO SWEE",
        "latitude": 1.28725,
        "longitude": 103.83094
    },
    {
        "address": "BLK 950 TO 976 HOUGANG AVE 9 /STREET 91",
        "latitude": 1.375055,
        "longitude": 103.877295
    },
    {
        "address": "BLK 978C TO 981D, 982, 987A TO 988C BUANKOK CRESCENT/GREEN",
        "latitude": 1.318651,
        "longitude": 103.89259
    },
    {
        "address": "BLK 134A JALAN BUKIT MERAH",
        "latitude": 1.279233,
        "longitude": 103.82721
    },
    {
        "address": "BLK 113A JLN BUKIT MERAH",
        "latitude": 1.280247,
        "longitude": 103.825731
    },
    {
        "address": "BLK 3-5,7,8,4A JALAN BATU",
        "latitude": 1.30236,
        "longitude": 103.883907
    },
    {
        "address": "BLK 6,12,14 KAMPONG ARANG ROAD",
        "latitude": 1.300153,
        "longitude": 103.884234
    },
    {
        "address": "BLK 1,2,9 KAMPONG KAYU",
        "latitude": 1.303397,
        "longitude": 103.884347
    },
    {
        "address": "BLK 2 JOO CHIAT RD",
        "latitude": 1.316023,
        "longitude": 103.898231
    },
    {
        "address": "BLK 2 JOO CHIAT RD",
        "latitude": 1.316023,
        "longitude": 103.898231
    },
    {
        "address": "BLK 8A JALAN KUKOH MSCP",
        "latitude": 1.287285,
        "longitude": 103.838929
    },
    {
        "address": "BLK 1 JALAN KUKOH CAR PARK",
        "latitude": 1.288184,
        "longitude": 103.839631
    },
    {
        "address": "BLK 117A JALAN MEMBINA",
        "latitude": 1.281977,
        "longitude": 103.827024
    },
    {
        "address": "BLK 18A JALAN MEMBINA",
        "latitude": 1.285271,
        "longitude": 103.826755
    },
    {
        "address": "BLK 26 JALAN MEMBINA",
        "latitude": 1.2836665,
        "longitude": 103.8253425
    },
    {
        "address": "BLK 517B JURONG WEST STREET 52",
        "latitude": 1.34511,
        "longitude": 103.720678
    },
    {
        "address": "BLK 648 JURONG WEST ST 61",
        "latitude": 1.339011,
        "longitude": 103.697351
    },